{"type": "FeatureCollection", "features": [{"type":"Feature","geometry":{"type":"Point","coordinates":[3.108447,53.826446]},"properties":{"borehole_name":"K04-12","borehole_status":"Unknown","end_date":"1998-07-09T00:00:00Z","start_date":"1998-04-13T00:00:00Z","owner":"Total","client":"Elf Petroland","on_off_shore":false,"field_name":"","field_code":"","lat":53.826446,"lng":3.108447,"created_at":"2015-05-23T11:22:46Z","updated_at":"2015-05-23T11:24:22Z","cartodb_id":561}},{"type":"Feature","geometry":{"type":"Point","coordinates":[6.429998,53.094858]},"properties":{"borehole_name":"NORG-41","borehole_status":"","end_date":"2014-05-26T00:00:00Z","start_date":"2014-01-21T00:00:00Z","owner":"NAM","client":"NAM","on_off_shore":true,"field_name":"Norg","field_code":"NOR","lat":53.094858,"lng":6.429998,"created_at":"2015-05-23T11:22:46Z","updated_at":"2015-05-23T11:24:22Z","cartodb_id":1308}},{"type":"Feature","geometry":{"type":"Point","coordinates":[3.456432,52.908065]},"properties":{"borehole_name":"P02-10-SIDETRACK1","borehole_status":"","end_date":"2012-07-06T00:00:00Z","start_date":"2012-04-15T00:00:00Z","owner":"Chevron","client":"Chevron","on_off_shore":false,"field_name":"","field_code":"","lat":52.908065,"lng":3.456432,"created_at":"2015-05-23T11:22:46Z","updated_at":"2015-05-23T11:24:22Z","cartodb_id":1389}},{"type":"Feature","geometry":{"type":"Point","coordinates":[6.706935,53.431993]},"properties":{"borehole_name":"UITHUIZEN-01","borehole_status":"Closed-in","end_date":"1978-09-07T00:00:00Z","start_date":"1978-08-01T00:00:00Z","owner":"NAM","client":"NAM","on_off_shore":true,"field_name":"","field_code":"","lat":53.431993,"lng":6.706935,"created_at":"2015-05-23T11:22:46Z","updated_at":"2015-05-23T11:24:22Z","cartodb_id":1757}},{"type":"Feature","geometry":{"type":"Point","coordinates":[4.892537,52.581961]},"properties":{"borehole_name":"WESTBEEMSTER-03","borehole_status":"","end_date":"2012-01-11T00:00:00Z","start_date":"2011-12-14T00:00:00Z","owner":"NAM","client":"NAM","on_off_shore":true,"field_name":"Westbeemster","field_code":"WBMS","lat":52.581961,"lng":4.892537,"created_at":"2015-05-23T11:22:46Z","updated_at":"2015-05-23T11:24:22Z","cartodb_id":1818}},{"type":"Feature","geometry":{"type":"Point","coordinates":[3.39175,53.548306]},"properties":{"borehole_name":"K08-08","borehole_status":"Plugged and abandoned","end_date":"1981-03-19T00:00:00Z","start_date":"1980-12-30T00:00:00Z","owner":"NAM","client":"NAM","on_off_shore":false,"field_name":"","field_code":"","lat":53.548306,"lng":3.39175,"created_at":"2015-05-23T11:22:46Z","updated_at":"2015-05-23T11:24:22Z","cartodb_id":653}},{"type":"Feature","geometry":{"type":"Point","coordinates":[6.322931,52.678734]},"properties":{"borehole_name":"DE WIJK-22","borehole_status":"Producing","end_date":"1982-05-31T00:00:00Z","start_date":"1982-05-03T00:00:00Z","owner":"NAM","client":"NAM","on_off_shore":true,"field_name":"De Wijk","field_code":"WYK","lat":52.678734,"lng":6.322931,"created_at":"2015-05-23T11:22:46Z","updated_at":"2015-05-23T11:24:22Z","cartodb_id":1872}},{"type":"Feature","geometry":{"type":"Point","coordinates":[6.739776,53.347234]},"properties":{"borehole_name":"ZEERIJP-01","borehole_status":"Closed-in","end_date":"1975-08-26T00:00:00Z","start_date":"1975-06-27T00:00:00Z","owner":"NAM","client":"NAM","on_off_shore":true,"field_name":"","field_code":"","lat":53.347234,"lng":6.739776,"created_at":"2015-05-23T11:22:46Z","updated_at":"2015-05-23T11:24:22Z","cartodb_id":1939}},{"type":"Feature","geometry":{"type":"Point","coordinates":[6.694265,52.646005]},"properties":{"borehole_name":"COEVORDEN-03","borehole_status":"Plugged and abandoned","end_date":"1950-09-19T00:00:00Z","start_date":"1949-11-15T00:00:00Z","owner":"NAM","client":"NAM","on_off_shore":true,"field_name":"","field_code":"","lat":52.646005,"lng":6.694265,"created_at":"2015-05-23T11:22:46Z","updated_at":"2015-05-23T11:24:22Z","cartodb_id":1}},{"type":"Feature","geometry":{"type":"Point","coordinates":[5.204944,54.126722]},"properties":{"borehole_name":"G16-01","borehole_status":"Plugged and abandoned","end_date":"1985-04-04T00:00:00Z","start_date":"1984-08-08T00:00:00Z","owner":"NAM","client":"NAM","on_off_shore":false,"field_name":"","field_code":"","lat":54.126722,"lng":5.204944,"created_at":"2015-05-23T11:22:46Z","updated_at":"2015-05-23T11:24:22Z","cartodb_id":2}},{"type":"Feature","geometry":{"type":"Point","coordinates":[6.83795,52.808896]},"properties":{"borehole_name":"SLEEN-03","borehole_status":"Closed-in","end_date":"1966-02-24T00:00:00Z","start_date":"1965-12-16T00:00:00Z","owner":"NAM","client":"NAM","on_off_shore":true,"field_name":"","field_code":"","lat":52.808896,"lng":6.83795,"created_at":"2015-05-23T11:22:46Z","updated_at":"2015-05-23T11:24:22Z","cartodb_id":3}},{"type":"Feature","geometry":{"type":"Point","coordinates":[6.220305,52.612848]},"properties":{"borehole_name":"STAPHORST-01-SIDETRACK1","borehole_status":"Plugged and abandoned","end_date":"1950-04-18T00:00:00Z","start_date":"1950-03-03T00:00:00Z","owner":"NAM","client":"NAM","on_off_shore":true,"field_name":"","field_code":"","lat":52.612848,"lng":6.220305,"created_at":"2015-05-23T11:22:46Z","updated_at":"2015-05-23T11:24:22Z","cartodb_id":4}},{"type":"Feature","geometry":{"type":"Point","coordinates":[5.14811,53.367053]},"properties":{"borehole_name":"TERSCHELLING WEST-01-SIDETRACK5","borehole_status":"Plugged and abandoned","end_date":"1989-04-22T00:00:00Z","start_date":"1989-03-10T00:00:00Z","owner":"NAM","client":"NAM","on_off_shore":true,"field_name":"","field_code":"","lat":53.367053,"lng":5.14811,"created_at":"2015-05-23T11:22:46Z","updated_at":"2015-05-23T11:24:22Z","cartodb_id":5}},{"type":"Feature","geometry":{"type":"Point","coordinates":[6.150545,53.371393]},"properties":{"borehole_name":"ANJUM-04","borehole_status":"Plugged and abandoned","end_date":"1997-02-24T00:00:00Z","start_date":"1996-12-21T00:00:00Z","owner":"NAM","client":"NAM","on_off_shore":true,"field_name":"Anjum","field_code":"ANJ","lat":53.371393,"lng":6.150545,"created_at":"2015-05-23T11:22:46Z","updated_at":"2015-05-23T11:24:22Z","cartodb_id":6}},{"type":"Feature","geometry":{"type":"Point","coordinates":[6.567162,53.301139]},"properties":{"borehole_name":"BEDUM-01","borehole_status":"Producing","end_date":"1977-05-13T00:00:00Z","start_date":"1977-03-07T00:00:00Z","owner":"NAM","client":"NAM","on_off_shore":true,"field_name":"Bedum","field_code":"BDM","lat":53.301139,"lng":6.567162,"created_at":"2015-05-23T11:22:46Z","updated_at":"2015-05-23T11:24:22Z","cartodb_id":7}},{"type":"Feature","geometry":{"type":"Point","coordinates":[6.774009,52.664614]},"properties":{"borehole_name":"COEVORDEN-19","borehole_status":"Closed-in","end_date":"1980-05-20T00:00:00Z","start_date":"1980-01-20T00:00:00Z","owner":"NAM","client":"NAM","on_off_shore":true,"field_name":"","field_code":"","lat":52.664614,"lng":6.774009,"created_at":"2015-05-23T11:22:46Z","updated_at":"2015-05-23T11:24:22Z","cartodb_id":8}},{"type":"Feature","geometry":{"type":"Point","coordinates":[6.715276,52.70714]},"properties":{"borehole_name":"DALEN-02-SIDETRACK6","borehole_status":"Producing","end_date":"1995-12-18T00:00:00Z","start_date":"1995-12-08T00:00:00Z","owner":"NAM","client":"NAM","on_off_shore":true,"field_name":"Dalen","field_code":"DAL","lat":52.70714,"lng":6.715276,"created_at":"2015-05-23T11:22:46Z","updated_at":"2015-05-23T11:24:22Z","cartodb_id":9}},{"type":"Feature","geometry":{"type":"Point","coordinates":[3.196512,53.765894]},"properties":{"borehole_name":"K04-11","borehole_status":"Plugged and abandoned","end_date":"1997-12-07T00:00:00Z","start_date":"1997-09-21T00:00:00Z","owner":"Total","client":"Elf Petroland","on_off_shore":false,"field_name":"","field_code":"","lat":53.765894,"lng":3.196512,"created_at":"2015-05-23T11:22:46Z","updated_at":"2015-05-23T11:24:22Z","cartodb_id":10}},{"type":"Feature","geometry":{"type":"Point","coordinates":[5.091361,53.855583]},"properties":{"borehole_name":"M01-02","borehole_status":"Plugged and abandoned","end_date":"1993-03-21T00:00:00Z","start_date":"1992-10-22T00:00:00Z","owner":"NAM","client":"NAM","on_off_shore":false,"field_name":"","field_code":"","lat":53.855583,"lng":5.091361,"created_at":"2015-05-23T11:22:46Z","updated_at":"2015-05-23T11:24:22Z","cartodb_id":11}},{"type":"Feature","geometry":{"type":"Point","coordinates":[3.033867,53.860197]},"properties":{"borehole_name":"K01-03","borehole_status":"Closed-in","end_date":"1997-02-02T00:00:00Z","start_date":"1996-11-28T00:00:00Z","owner":"Total","client":"Elf Petroland","on_off_shore":false,"field_name":"","field_code":"","lat":53.860197,"lng":3.033867,"created_at":"2015-05-23T11:22:46Z","updated_at":"2015-05-23T11:24:22Z","cartodb_id":12}},{"type":"Feature","geometry":{"type":"Point","coordinates":[4.902944,54.992528]},"properties":{"borehole_name":"F03-08","borehole_status":"Suspended","end_date":"1982-04-19T00:00:00Z","start_date":"1982-02-26T00:00:00Z","owner":"NAM","client":"NAM","on_off_shore":false,"field_name":"","field_code":"","lat":54.992528,"lng":4.902944,"created_at":"2015-05-23T11:22:46Z","updated_at":"2015-05-23T11:24:22Z","cartodb_id":13}},{"type":"Feature","geometry":{"type":"Point","coordinates":[3.877889,53.248917]},"properties":{"borehole_name":"K15-04-SIDETRACK2","borehole_status":"Closed-in","end_date":"1977-06-30T00:00:00Z","start_date":"1977-03-30T00:00:00Z","owner":"NAM","client":"NAM","on_off_shore":false,"field_name":"","field_code":"","lat":53.248917,"lng":3.877889,"created_at":"2015-05-23T11:22:46Z","updated_at":"2015-05-23T11:24:22Z","cartodb_id":14}},{"type":"Feature","geometry":{"type":"Point","coordinates":[5.898441,53.48697]},"properties":{"borehole_name":"AMELAND OOST-02","borehole_status":"Plugged and abandoned","end_date":"1973-12-13T00:00:00Z","start_date":"1973-11-24T00:00:00Z","owner":"NAM","client":"NAM","on_off_shore":true,"field_name":"","field_code":"","lat":53.48697,"lng":5.898441,"created_at":"2015-05-23T11:22:46Z","updated_at":"2015-05-23T11:24:22Z","cartodb_id":15}},{"type":"Feature","geometry":{"type":"Point","coordinates":[4.717264,52.650869]},"properties":{"borehole_name":"BGM-17-SIDETRACK1","borehole_status":"","end_date":"2015-01-03T00:00:00Z","start_date":"2014-12-04T00:00:00Z","owner":"TAQA","client":"TAQA","on_off_shore":true,"field_name":"","field_code":"","lat":52.650869,"lng":4.717264,"created_at":"2015-05-23T11:22:46Z","updated_at":"2015-05-23T11:24:22Z","cartodb_id":144}},{"type":"Feature","geometry":{"type":"Point","coordinates":[4.187538,52.033629]},"properties":{"borehole_name":"MONSTER-03","borehole_status":"Producing","end_date":"1990-03-28T00:00:00Z","start_date":"1990-01-29T00:00:00Z","owner":"NAM","client":"NAM","on_off_shore":true,"field_name":"Monster","field_code":"MON","lat":52.033629,"lng":4.187538,"created_at":"2015-05-23T11:22:46Z","updated_at":"2015-05-23T11:24:22Z","cartodb_id":1255}},{"type":"Feature","geometry":{"type":"Point","coordinates":[5.898441,53.48697]},"properties":{"borehole_name":"AMELAND OOST-02-SIDETRACK1","borehole_status":"Closed-in","end_date":"1974-04-24T00:00:00Z","start_date":"1973-12-18T00:00:00Z","owner":"NAM","client":"NAM","on_off_shore":true,"field_name":"","field_code":"","lat":53.48697,"lng":5.898441,"created_at":"2015-05-23T11:22:46Z","updated_at":"2015-05-23T11:24:22Z","cartodb_id":16}},{"type":"Feature","geometry":{"type":"Point","coordinates":[5.92555,53.523679]},"properties":{"borehole_name":"AMELAND NOORD-03-SIDETRACK1","borehole_status":"Closed-in","end_date":"1981-12-03T00:00:00Z","start_date":"1981-07-28T00:00:00Z","owner":"NAM","client":"NAM","on_off_shore":true,"field_name":"","field_code":"","lat":53.523679,"lng":5.92555,"created_at":"2015-05-23T11:22:46Z","updated_at":"2015-05-23T11:24:22Z","cartodb_id":17}},{"type":"Feature","geometry":{"type":"Point","coordinates":[3.790056,55.401]},"properties":{"borehole_name":"A12-03","borehole_status":"Plugged and abandoned","end_date":"1988-09-26T00:00:00Z","start_date":"1988-08-20T00:00:00Z","owner":"NAM","client":"NAM","on_off_shore":false,"field_name":"","field_code":"","lat":55.401,"lng":3.790056,"created_at":"2015-05-23T11:22:46Z","updated_at":"2015-05-23T11:24:22Z","cartodb_id":18}},{"type":"Feature","geometry":{"type":"Point","coordinates":[3.811551,55.399595]},"properties":{"borehole_name":"A12-A-01","borehole_status":"Producing","end_date":"2007-11-12T00:00:00Z","start_date":"2007-08-26T00:00:00Z","owner":"Chevron","client":"Chevron","on_off_shore":false,"field_name":"A12-FA","field_code":"A12-FA","lat":55.399595,"lng":3.811551,"created_at":"2015-05-23T11:22:46Z","updated_at":"2015-05-23T11:24:22Z","cartodb_id":19}},{"type":"Feature","geometry":{"type":"Point","coordinates":[3.811576,55.399603]},"properties":{"borehole_name":"A12-A-02","borehole_status":"Producing","end_date":"2008-01-01T00:00:00Z","start_date":"2007-08-19T00:00:00Z","owner":"Chevron","client":"Chevron","on_off_shore":false,"field_name":"A12-FA","field_code":"A12-FA","lat":55.399603,"lng":3.811576,"created_at":"2015-05-23T11:22:46Z","updated_at":"2015-05-23T11:24:22Z","cartodb_id":20}},{"type":"Feature","geometry":{"type":"Point","coordinates":[3.811601,55.399611]},"properties":{"borehole_name":"A12-A-03","borehole_status":"Producing","end_date":"2007-12-16T00:00:00Z","start_date":"2007-08-24T00:00:00Z","owner":"Chevron","client":"Chevron","on_off_shore":false,"field_name":"A12-FA","field_code":"A12-FA","lat":55.399611,"lng":3.811601,"created_at":"2015-05-23T11:22:46Z","updated_at":"2015-05-23T11:24:22Z","cartodb_id":21}},{"type":"Feature","geometry":{"type":"Point","coordinates":[3.811537,55.399609]},"properties":{"borehole_name":"A12-A-04","borehole_status":"Producing","end_date":"2007-09-26T00:00:00Z","start_date":"2007-08-30T00:00:00Z","owner":"Chevron","client":"Chevron","on_off_shore":false,"field_name":"A12-FA","field_code":"A12-FA","lat":55.399609,"lng":3.811537,"created_at":"2015-05-23T11:22:46Z","updated_at":"2015-05-23T11:24:22Z","cartodb_id":22}},{"type":"Feature","geometry":{"type":"Point","coordinates":[3.811587,55.399625]},"properties":{"borehole_name":"A12-A-05","borehole_status":"Producing","end_date":"2007-12-01T00:00:00Z","start_date":"2007-08-27T00:00:00Z","owner":"Chevron","client":"Chevron","on_off_shore":false,"field_name":"A12-FA","field_code":"A12-FA","lat":55.399625,"lng":3.811587,"created_at":"2015-05-23T11:22:46Z","updated_at":"2015-05-23T11:24:22Z","cartodb_id":23}},{"type":"Feature","geometry":{"type":"Point","coordinates":[5.96016,53.466809]},"properties":{"borehole_name":"AMELAND OOST-01","borehole_status":"Closed-in","end_date":"1964-07-12T00:00:00Z","start_date":"1964-04-25T00:00:00Z","owner":"Mobil","client":"Mobil","on_off_shore":true,"field_name":"","field_code":"","lat":53.466809,"lng":5.96016,"created_at":"2015-05-23T11:22:46Z","updated_at":"2015-05-23T11:24:22Z","cartodb_id":24}},{"type":"Feature","geometry":{"type":"Point","coordinates":[3.811523,55.399623]},"properties":{"borehole_name":"A12-A-06","borehole_status":"Producing","end_date":"2007-11-21T00:00:00Z","start_date":"2007-08-21T00:00:00Z","owner":"Chevron","client":"Chevron","on_off_shore":false,"field_name":"A12-FA","field_code":"A12-FA","lat":55.399623,"lng":3.811523,"created_at":"2015-05-23T11:22:46Z","updated_at":"2015-05-23T11:24:22Z","cartodb_id":25}},{"type":"Feature","geometry":{"type":"Point","coordinates":[3.811573,55.399639]},"properties":{"borehole_name":"A12-A-07-SIDETRACK1","borehole_status":"Producing","end_date":"2007-11-11T00:00:00Z","start_date":"2007-10-31T00:00:00Z","owner":"Chevron","client":"Chevron","on_off_shore":false,"field_name":"A12-FA","field_code":"A12-FA","lat":55.399639,"lng":3.811573,"created_at":"2015-05-23T11:22:46Z","updated_at":"2015-05-23T11:24:22Z","cartodb_id":26}},{"type":"Feature","geometry":{"type":"Point","coordinates":[3.826199,55.301233]},"properties":{"borehole_name":"A15-03","borehole_status":"Plugged and abandoned","end_date":"1999-09-21T00:00:00Z","start_date":"1999-07-28T00:00:00Z","owner":"Wintershall","client":"Wintershall","on_off_shore":false,"field_name":"","field_code":"","lat":55.301233,"lng":3.826199,"created_at":"2015-05-23T11:22:46Z","updated_at":"2015-05-23T11:24:22Z","cartodb_id":27}},{"type":"Feature","geometry":{"type":"Point","coordinates":[3.812033,55.116103]},"properties":{"borehole_name":"A18-02","borehole_status":"Plugged and abandoned","end_date":"1987-09-14T00:00:00Z","start_date":"1987-08-25T00:00:00Z","owner":"NAM","client":"NAM","on_off_shore":false,"field_name":"","field_code":"","lat":55.116103,"lng":3.812033,"created_at":"2015-05-23T11:22:46Z","updated_at":"2015-05-23T11:24:22Z","cartodb_id":28}},{"type":"Feature","geometry":{"type":"Point","coordinates":[3.812033,55.116103]},"properties":{"borehole_name":"A18-02-SIDETRACK1","borehole_status":"Plugged and abandoned","end_date":"1987-10-23T00:00:00Z","start_date":"1987-09-15T00:00:00Z","owner":"NAM","client":"NAM","on_off_shore":false,"field_name":"","field_code":"","lat":55.116103,"lng":3.812033,"created_at":"2015-05-23T11:22:46Z","updated_at":"2015-05-23T11:24:22Z","cartodb_id":29}},{"type":"Feature","geometry":{"type":"Point","coordinates":[3.812033,55.116103]},"properties":{"borehole_name":"A18-02-SIDETRACK2","borehole_status":"Plugged and abandoned","end_date":"1987-11-08T00:00:00Z","start_date":"1987-10-24T00:00:00Z","owner":"NAM","client":"NAM","on_off_shore":false,"field_name":"","field_code":"","lat":55.116103,"lng":3.812033,"created_at":"2015-05-23T11:22:46Z","updated_at":"2015-05-23T11:24:22Z","cartodb_id":30}},{"type":"Feature","geometry":{"type":"Point","coordinates":[5.985473,53.123064]},"properties":{"borehole_name":"OUDEGA-AKKRUM-01","borehole_status":"Plugged and abandoned","end_date":"1965-07-19T00:00:00Z","start_date":"1965-05-11T00:00:00Z","owner":"Chevron","client":"Chevron","on_off_shore":true,"field_name":"Akkrum 1","field_code":"AKM1","lat":53.123064,"lng":5.985473,"created_at":"2015-05-23T11:22:46Z","updated_at":"2015-05-23T11:24:22Z","cartodb_id":31}},{"type":"Feature","geometry":{"type":"Point","coordinates":[6.023993,53.095405]},"properties":{"borehole_name":"OUDEGA-AKKRUM-03","borehole_status":"Plugged and abandoned","end_date":"1965-10-24T00:00:00Z","start_date":"1965-08-29T00:00:00Z","owner":"Chevron","client":"Chevron","on_off_shore":true,"field_name":"Akkrum 3","field_code":"AKM3","lat":53.095405,"lng":6.023993,"created_at":"2015-05-23T11:22:46Z","updated_at":"2015-05-23T11:24:22Z","cartodb_id":32}},{"type":"Feature","geometry":{"type":"Point","coordinates":[6.006792,53.12017]},"properties":{"borehole_name":"OUDEGA-AKKRUM-06","borehole_status":"Producing","end_date":"1976-06-17T00:00:00Z","start_date":"1976-05-19T00:00:00Z","owner":"Chevron","client":"Chevron","on_off_shore":true,"field_name":"Leeuwarden en Nijega","field_code":"LW-NIJ","lat":53.12017,"lng":6.006792,"created_at":"2015-05-23T11:22:46Z","updated_at":"2015-05-23T11:24:22Z","cartodb_id":33}},{"type":"Feature","geometry":{"type":"Point","coordinates":[6.031266,53.115728]},"properties":{"borehole_name":"OUDEGA-AKKRUM-07","borehole_status":"Producing","end_date":"1977-09-04T00:00:00Z","start_date":"1977-07-28T00:00:00Z","owner":"Chevron","client":"Chevron","on_off_shore":true,"field_name":"Leeuwarden en Nijega","field_code":"LW-NIJ","lat":53.115728,"lng":6.031266,"created_at":"2015-05-23T11:22:46Z","updated_at":"2015-05-23T11:24:22Z","cartodb_id":34}},{"type":"Feature","geometry":{"type":"Point","coordinates":[5.985653,53.124222]},"properties":{"borehole_name":"OUDEGA-AKKRUM-08","borehole_status":"Producing","end_date":"1977-07-24T00:00:00Z","start_date":"1977-06-09T00:00:00Z","owner":"Chevron","client":"Chevron","on_off_shore":true,"field_name":"Leeuwarden en Nijega","field_code":"LW-NIJ","lat":53.124222,"lng":5.985653,"created_at":"2015-05-23T11:22:46Z","updated_at":"2015-05-23T11:24:22Z","cartodb_id":35}},{"type":"Feature","geometry":{"type":"Point","coordinates":[5.991813,53.091384]},"properties":{"borehole_name":"OUDEGA-AKKRUM-09","borehole_status":"Plugged and abandoned","end_date":"1980-01-07T00:00:00Z","start_date":"1979-11-20T00:00:00Z","owner":"Chevron","client":"Chevron","on_off_shore":true,"field_name":"Akkrum 9","field_code":"AKM9","lat":53.091384,"lng":5.991813,"created_at":"2015-05-23T11:22:46Z","updated_at":"2015-05-23T11:24:22Z","cartodb_id":36}},{"type":"Feature","geometry":{"type":"Point","coordinates":[6.031135,53.115899]},"properties":{"borehole_name":"OUDEGA-AKKRUM-10-SIDETRACK1","borehole_status":"Producing","end_date":"1978-06-25T00:00:00Z","start_date":"1978-05-24T00:00:00Z","owner":"Chevron","client":"Chevron","on_off_shore":true,"field_name":"Opeinde-Zuid","field_code":"OPS","lat":53.115899,"lng":6.031135,"created_at":"2015-05-23T11:22:46Z","updated_at":"2015-05-23T11:24:22Z","cartodb_id":37}},{"type":"Feature","geometry":{"type":"Point","coordinates":[6.166099,53.023368]},"properties":{"borehole_name":"OUDEGA-AKKRUM-11","borehole_status":"Plugged and abandoned","end_date":"1978-10-19T00:00:00Z","start_date":"1978-08-10T00:00:00Z","owner":"Chevron","client":"Chevron","on_off_shore":true,"field_name":"Hemrik (Akkrum 11)","field_code":"AKM11","lat":53.023368,"lng":6.166099,"created_at":"2015-05-23T11:22:46Z","updated_at":"2015-05-23T11:24:22Z","cartodb_id":38}},{"type":"Feature","geometry":{"type":"Point","coordinates":[6.024197,53.095062]},"properties":{"borehole_name":"OUDEGA-AKKRUM-12","borehole_status":"Closed-in","end_date":"1979-01-10T00:00:00Z","start_date":"1978-10-26T00:00:00Z","owner":"Chevron","client":"Chevron","on_off_shore":true,"field_name":"Akkrum 3","field_code":"AKM3","lat":53.095062,"lng":6.024197,"created_at":"2015-05-23T11:22:46Z","updated_at":"2015-05-23T11:24:22Z","cartodb_id":39}},{"type":"Feature","geometry":{"type":"Point","coordinates":[5.937771,53.06723]},"properties":{"borehole_name":"OUDEGA-AKKRUM-13","borehole_status":"Plugged and abandoned","end_date":"1980-03-05T00:00:00Z","start_date":"1980-01-12T00:00:00Z","owner":"Chevron","client":"Chevron","on_off_shore":true,"field_name":"Akkrum 13","field_code":"AKM13","lat":53.06723,"lng":5.937771,"created_at":"2015-05-23T11:22:46Z","updated_at":"2015-05-23T11:24:22Z","cartodb_id":40}},{"type":"Feature","geometry":{"type":"Point","coordinates":[5.993242,53.118891]},"properties":{"borehole_name":"OUDEGA-AKKRUM-14","borehole_status":"Producing","end_date":"1981-07-13T00:00:00Z","start_date":"1981-05-19T00:00:00Z","owner":"Chevron","client":"Chevron","on_off_shore":true,"field_name":"Leeuwarden en Nijega","field_code":"LW-NIJ","lat":53.118891,"lng":5.993242,"created_at":"2015-05-23T11:22:46Z","updated_at":"2015-05-23T11:24:22Z","cartodb_id":41}},{"type":"Feature","geometry":{"type":"Point","coordinates":[5.993396,53.119223]},"properties":{"borehole_name":"OUDEGA-AKKRUM-16","borehole_status":"Producing","end_date":"1981-11-22T00:00:00Z","start_date":"1981-09-13T00:00:00Z","owner":"Chevron","client":"Chevron","on_off_shore":true,"field_name":"Akkrum 1","field_code":"AKM1","lat":53.119223,"lng":5.993396,"created_at":"2015-05-23T11:22:46Z","updated_at":"2015-05-23T11:24:22Z","cartodb_id":42}},{"type":"Feature","geometry":{"type":"Point","coordinates":[4.745001,52.603814]},"properties":{"borehole_name":"ALKMAAR-01","borehole_status":"Closed-in","end_date":"1975-05-14T00:00:00Z","start_date":"1975-04-10T00:00:00Z","owner":"TAQA","client":"Amoco","on_off_shore":true,"field_name":"Alkmaar","field_code":"ALK","lat":52.603814,"lng":4.745001,"created_at":"2015-05-23T11:22:46Z","updated_at":"2015-05-23T11:24:22Z","cartodb_id":43}},{"type":"Feature","geometry":{"type":"Point","coordinates":[5.922279,53.465815]},"properties":{"borehole_name":"AMELAND OOST-101","borehole_status":"Producing","end_date":"1983-02-10T00:00:00Z","start_date":"1982-11-25T00:00:00Z","owner":"NAM","client":"NAM","on_off_shore":true,"field_name":"Ameland-Oost","field_code":"AME","lat":53.465815,"lng":5.922279,"created_at":"2015-05-23T11:22:46Z","updated_at":"2015-05-23T11:24:22Z","cartodb_id":44}},{"type":"Feature","geometry":{"type":"Point","coordinates":[5.921678,53.465863]},"properties":{"borehole_name":"AMELAND OOST-102-SIDETRACK3","borehole_status":"Unknown","end_date":"1984-03-16T00:00:00Z","start_date":"1984-01-29T00:00:00Z","owner":"NAM","client":"NAM","on_off_shore":true,"field_name":"Ameland-Oost","field_code":"AME","lat":53.465863,"lng":5.921678,"created_at":"2015-05-23T11:22:46Z","updated_at":"2015-05-23T11:24:22Z","cartodb_id":45}},{"type":"Feature","geometry":{"type":"Point","coordinates":[5.921828,53.465853]},"properties":{"borehole_name":"AMELAND OOST-103","borehole_status":"Plugged and abandoned","end_date":"1984-01-29T00:00:00Z","start_date":"1983-10-12T00:00:00Z","owner":"NAM","client":"NAM","on_off_shore":true,"field_name":"Ameland-Oost","field_code":"AME","lat":53.465853,"lng":5.921828,"created_at":"2015-05-23T11:22:46Z","updated_at":"2015-05-23T11:24:22Z","cartodb_id":46}},{"type":"Feature","geometry":{"type":"Point","coordinates":[5.921828,53.465853]},"properties":{"borehole_name":"AMELAND OOST-103-SIDETRACK1","borehole_status":"Producing","end_date":"1984-11-27T00:00:00Z","start_date":"1984-10-07T00:00:00Z","owner":"NAM","client":"NAM","on_off_shore":true,"field_name":"Ameland-Oost","field_code":"AME","lat":53.465853,"lng":5.921828,"created_at":"2015-05-23T11:22:46Z","updated_at":"2015-05-23T11:24:22Z","cartodb_id":47}},{"type":"Feature","geometry":{"type":"Point","coordinates":[5.921828,53.465853]},"properties":{"borehole_name":"AMELAND OOST-104","borehole_status":"Producing","end_date":"1985-03-02T00:00:00Z","start_date":"1984-11-30T00:00:00Z","owner":"NAM","client":"NAM","on_off_shore":true,"field_name":"Ameland-Oost","field_code":"AME","lat":53.465853,"lng":5.921828,"created_at":"2015-05-23T11:22:46Z","updated_at":"2015-05-23T11:24:22Z","cartodb_id":48}},{"type":"Feature","geometry":{"type":"Point","coordinates":[5.921828,53.465853]},"properties":{"borehole_name":"AMELAND OOST-105","borehole_status":"Producing","end_date":"1986-03-11T00:00:00Z","start_date":"1985-10-23T00:00:00Z","owner":"NAM","client":"NAM","on_off_shore":true,"field_name":"Ameland-Oost","field_code":"AME","lat":53.465853,"lng":5.921828,"created_at":"2015-05-23T11:22:46Z","updated_at":"2015-05-23T11:24:22Z","cartodb_id":49}},{"type":"Feature","geometry":{"type":"Point","coordinates":[5.92243,53.465797]},"properties":{"borehole_name":"AMELAND OOST-106","borehole_status":"Producing","end_date":"1990-02-11T00:00:00Z","start_date":"1989-11-06T00:00:00Z","owner":"NAM","client":"NAM","on_off_shore":true,"field_name":"Ameland-Oost","field_code":"AME","lat":53.465797,"lng":5.92243,"created_at":"2015-05-23T11:22:46Z","updated_at":"2015-05-23T11:24:22Z","cartodb_id":50}},{"type":"Feature","geometry":{"type":"Point","coordinates":[5.922323,53.46568]},"properties":{"borehole_name":"AMELAND OOST-107","borehole_status":"Plugged and abandoned","end_date":"1997-12-28T00:00:00Z","start_date":"1997-10-28T00:00:00Z","owner":"NAM","client":"NAM","on_off_shore":true,"field_name":"Ameland-Oost","field_code":"AME","lat":53.46568,"lng":5.922323,"created_at":"2015-05-23T11:22:46Z","updated_at":"2015-05-23T11:24:22Z","cartodb_id":51}},{"type":"Feature","geometry":{"type":"Point","coordinates":[5.922323,53.46568]},"properties":{"borehole_name":"AMELAND OOST-107-SIDETRACK1","borehole_status":"Producing","end_date":"1998-01-28T00:00:00Z","start_date":"1997-12-28T00:00:00Z","owner":"NAM","client":"NAM","on_off_shore":true,"field_name":"Ameland-Oost","field_code":"AME","lat":53.46568,"lng":5.922323,"created_at":"2015-05-23T11:22:46Z","updated_at":"2015-05-23T11:24:22Z","cartodb_id":52}},{"type":"Feature","geometry":{"type":"Point","coordinates":[5.868942,53.483919]},"properties":{"borehole_name":"AMELAND OOST-201","borehole_status":"Producing","end_date":"1978-10-18T00:00:00Z","start_date":"1978-06-16T00:00:00Z","owner":"NAM","client":"NAM","on_off_shore":true,"field_name":"Ameland-Oost","field_code":"AME","lat":53.483919,"lng":5.868942,"created_at":"2015-05-23T11:22:46Z","updated_at":"2015-05-23T11:24:22Z","cartodb_id":53}},{"type":"Feature","geometry":{"type":"Point","coordinates":[5.868222,53.484201]},"properties":{"borehole_name":"AMELAND OOST-202-SIDETRACK1","borehole_status":"Plugged back and sidetracked","end_date":"1984-01-21T00:00:00Z","start_date":"1983-08-11T00:00:00Z","owner":"NAM","client":"NAM","on_off_shore":true,"field_name":"","field_code":"","lat":53.484201,"lng":5.868222,"created_at":"2015-05-23T11:22:46Z","updated_at":"2015-05-23T11:24:22Z","cartodb_id":54}},{"type":"Feature","geometry":{"type":"Point","coordinates":[5.868253,53.484255]},"properties":{"borehole_name":"AMELAND OOST-203","borehole_status":"Plugged and abandoned","end_date":"1992-03-10T00:00:00Z","start_date":"1991-05-21T00:00:00Z","owner":"NAM","client":"NAM","on_off_shore":true,"field_name":"Ameland-Oost","field_code":"AME","lat":53.484255,"lng":5.868253,"created_at":"2015-05-23T11:22:46Z","updated_at":"2015-05-23T11:24:22Z","cartodb_id":55}},{"type":"Feature","geometry":{"type":"Point","coordinates":[5.868253,53.484255]},"properties":{"borehole_name":"AMELAND OOST-203-SIDETRACK1","borehole_status":"Plugged and abandoned","end_date":"1995-07-30T00:00:00Z","start_date":"1995-05-16T00:00:00Z","owner":"NAM","client":"NAM","on_off_shore":true,"field_name":"Ameland-Oost","field_code":"AME","lat":53.484255,"lng":5.868253,"created_at":"2015-05-23T11:22:46Z","updated_at":"2015-05-23T11:24:22Z","cartodb_id":56}},{"type":"Feature","geometry":{"type":"Point","coordinates":[5.868253,53.484255]},"properties":{"borehole_name":"AMELAND OOST-203-SIDETRACK2","borehole_status":"Closed-in","end_date":"1996-10-09T00:00:00Z","start_date":"1996-09-30T00:00:00Z","owner":"NAM","client":"NAM","on_off_shore":true,"field_name":"Ameland-Oost","field_code":"AME","lat":53.484255,"lng":5.868253,"created_at":"2015-05-23T11:22:46Z","updated_at":"2015-05-23T11:24:22Z","cartodb_id":57}},{"type":"Feature","geometry":{"type":"Point","coordinates":[5.868253,53.484228]},"properties":{"borehole_name":"AMELAND OOST-204-SIDETRACK1","borehole_status":"Producing","end_date":"1992-10-25T00:00:00Z","start_date":"1992-06-23T00:00:00Z","owner":"NAM","client":"NAM","on_off_shore":true,"field_name":"Ameland-Oost","field_code":"AME","lat":53.484228,"lng":5.868253,"created_at":"2015-05-23T11:22:46Z","updated_at":"2015-05-23T11:24:22Z","cartodb_id":58}},{"type":"Feature","geometry":{"type":"Point","coordinates":[5.868197,53.484248]},"properties":{"borehole_name":"AMELAND OOST-205-SIDETRACK1","borehole_status":"Suspended","end_date":"2009-08-08T00:00:00Z","start_date":"2009-06-10T00:00:00Z","owner":"NAM","client":"NAM","on_off_shore":true,"field_name":"Ameland-Oost","field_code":"AME","lat":53.484248,"lng":5.868197,"created_at":"2015-05-23T11:22:46Z","updated_at":"2015-05-23T11:24:22Z","cartodb_id":59}},{"type":"Feature","geometry":{"type":"Point","coordinates":[5.868197,53.484248]},"properties":{"borehole_name":"AMELAND OOST-205-SIDETRACK2","borehole_status":"","end_date":"2010-07-20T00:00:00Z","start_date":"2010-06-09T00:00:00Z","owner":"NAM","client":"NAM","on_off_shore":true,"field_name":"Ameland-Oost","field_code":"AME","lat":53.484248,"lng":5.868197,"created_at":"2015-05-23T11:22:46Z","updated_at":"2015-05-23T11:24:22Z","cartodb_id":60}},{"type":"Feature","geometry":{"type":"Point","coordinates":[5.941626,53.521648]},"properties":{"borehole_name":"AMELAND NOORD-01","borehole_status":"Plugged and abandoned","end_date":"1965-03-10T00:00:00Z","start_date":"1965-01-09T00:00:00Z","owner":"Mobil","client":"Mobil","on_off_shore":true,"field_name":"","field_code":"","lat":53.521648,"lng":5.941626,"created_at":"2015-05-23T11:22:46Z","updated_at":"2015-05-23T11:24:22Z","cartodb_id":61}},{"type":"Feature","geometry":{"type":"Point","coordinates":[6.906354,53.301562]},"properties":{"borehole_name":"AMSWEER-01","borehole_status":"Producing","end_date":"1972-05-16T00:00:00Z","start_date":"1972-03-28T00:00:00Z","owner":"NAM","client":"NAM","on_off_shore":true,"field_name":"Groningen","field_code":"GRO","lat":53.301562,"lng":6.906354,"created_at":"2015-05-23T11:22:46Z","updated_at":"2015-05-23T11:24:22Z","cartodb_id":62}},{"type":"Feature","geometry":{"type":"Point","coordinates":[6.910547,53.300943]},"properties":{"borehole_name":"AMSWEER-02","borehole_status":"Producing","end_date":"1973-06-13T00:00:00Z","start_date":"1973-05-17T00:00:00Z","owner":"NAM","client":"NAM","on_off_shore":true,"field_name":"Groningen","field_code":"GRO","lat":53.300943,"lng":6.910547,"created_at":"2015-05-23T11:22:46Z","updated_at":"2015-05-23T11:24:22Z","cartodb_id":63}},{"type":"Feature","geometry":{"type":"Point","coordinates":[6.909497,53.300939]},"properties":{"borehole_name":"AMSWEER-03","borehole_status":"Producing","end_date":"1973-02-24T00:00:00Z","start_date":"1973-01-26T00:00:00Z","owner":"NAM","client":"NAM","on_off_shore":true,"field_name":"Groningen","field_code":"GRO","lat":53.300939,"lng":6.909497,"created_at":"2015-05-23T11:22:46Z","updated_at":"2015-05-23T11:24:22Z","cartodb_id":64}},{"type":"Feature","geometry":{"type":"Point","coordinates":[6.908453,53.300934]},"properties":{"borehole_name":"AMSWEER-04","borehole_status":"Producing","end_date":"1973-03-22T00:00:00Z","start_date":"1973-02-25T00:00:00Z","owner":"NAM","client":"NAM","on_off_shore":true,"field_name":"Groningen","field_code":"GRO","lat":53.300934,"lng":6.908453,"created_at":"2015-05-23T11:22:46Z","updated_at":"2015-05-23T11:24:22Z","cartodb_id":65}},{"type":"Feature","geometry":{"type":"Point","coordinates":[6.907397,53.300929]},"properties":{"borehole_name":"AMSWEER-05-SIDETRACK2","borehole_status":"Producing","end_date":"1973-05-05T00:00:00Z","start_date":"1973-04-16T00:00:00Z","owner":"NAM","client":"NAM","on_off_shore":true,"field_name":"Groningen","field_code":"GRO","lat":53.300929,"lng":6.907397,"created_at":"2015-05-23T11:22:46Z","updated_at":"2015-05-23T11:24:22Z","cartodb_id":66}},{"type":"Feature","geometry":{"type":"Point","coordinates":[6.906347,53.300933]},"properties":{"borehole_name":"AMSWEER-06","borehole_status":"Producing","end_date":"1973-06-08T00:00:00Z","start_date":"1973-05-06T00:00:00Z","owner":"NAM","client":"NAM","on_off_shore":true,"field_name":"Groningen","field_code":"GRO","lat":53.300933,"lng":6.906347,"created_at":"2015-05-23T11:22:46Z","updated_at":"2015-05-23T11:24:22Z","cartodb_id":67}},{"type":"Feature","geometry":{"type":"Point","coordinates":[6.905296,53.300929]},"properties":{"borehole_name":"AMSWEER-07","borehole_status":"Producing","end_date":"1973-07-09T00:00:00Z","start_date":"1973-06-09T00:00:00Z","owner":"NAM","client":"NAM","on_off_shore":true,"field_name":"Groningen","field_code":"GRO","lat":53.300929,"lng":6.905296,"created_at":"2015-05-23T11:22:46Z","updated_at":"2015-05-23T11:24:22Z","cartodb_id":68}},{"type":"Feature","geometry":{"type":"Point","coordinates":[6.907404,53.301558]},"properties":{"borehole_name":"AMSWEER-08","borehole_status":"Producing","end_date":"1973-02-13T00:00:00Z","start_date":"1973-01-13T00:00:00Z","owner":"NAM","client":"NAM","on_off_shore":true,"field_name":"Groningen","field_code":"GRO","lat":53.301558,"lng":6.907404,"created_at":"2015-05-23T11:22:46Z","updated_at":"2015-05-23T11:24:22Z","cartodb_id":69}},{"type":"Feature","geometry":{"type":"Point","coordinates":[6.908454,53.301563]},"properties":{"borehole_name":"AMSWEER-09","borehole_status":"Producing","end_date":"1973-03-16T00:00:00Z","start_date":"1973-02-13T00:00:00Z","owner":"NAM","client":"NAM","on_off_shore":true,"field_name":"Groningen","field_code":"GRO","lat":53.301563,"lng":6.908454,"created_at":"2015-05-23T11:22:46Z","updated_at":"2015-05-23T11:24:22Z","cartodb_id":70}},{"type":"Feature","geometry":{"type":"Point","coordinates":[6.909504,53.301568]},"properties":{"borehole_name":"AMSWEER-10","borehole_status":"Producing","end_date":"1973-04-14T00:00:00Z","start_date":"1973-03-17T00:00:00Z","owner":"NAM","client":"NAM","on_off_shore":true,"field_name":"Groningen","field_code":"GRO","lat":53.301568,"lng":6.909504,"created_at":"2015-05-23T11:22:46Z","updated_at":"2015-05-23T11:24:22Z","cartodb_id":71}},{"type":"Feature","geometry":{"type":"Point","coordinates":[6.910554,53.301572]},"properties":{"borehole_name":"AMSWEER-11","borehole_status":"Producing","end_date":"1973-05-16T00:00:00Z","start_date":"1973-04-15T00:00:00Z","owner":"NAM","client":"NAM","on_off_shore":true,"field_name":"Groningen","field_code":"GRO","lat":53.301572,"lng":6.910554,"created_at":"2015-05-23T11:22:46Z","updated_at":"2015-05-23T11:24:22Z","cartodb_id":72}},{"type":"Feature","geometry":{"type":"Point","coordinates":[6.905304,53.301558]},"properties":{"borehole_name":"AMSWEER-12","borehole_status":"Plugged and abandoned","end_date":"1984-06-09T00:00:00Z","start_date":"1984-04-14T00:00:00Z","owner":"NAM","client":"NAM","on_off_shore":true,"field_name":"Groningen","field_code":"GRO","lat":53.301558,"lng":6.905304,"created_at":"2015-05-23T11:22:46Z","updated_at":"2015-05-23T11:24:22Z","cartodb_id":73}},{"type":"Feature","geometry":{"type":"Point","coordinates":[6.905304,53.301558]},"properties":{"borehole_name":"AMSWEER-12-SIDETRACK1","borehole_status":"Producing","end_date":"1987-08-10T00:00:00Z","start_date":"1987-07-26T00:00:00Z","owner":"NAM","client":"NAM","on_off_shore":true,"field_name":"Groningen","field_code":"GRO","lat":53.301558,"lng":6.905304,"created_at":"2015-05-23T11:22:46Z","updated_at":"2015-05-23T11:24:22Z","cartodb_id":74}},{"type":"Feature","geometry":{"type":"Point","coordinates":[5.075549,51.76389]},"properties":{"borehole_name":"ANDEL-06","borehole_status":"Producing","end_date":"1991-04-16T00:00:00Z","start_date":"1991-02-07T00:00:00Z","owner":"NAM","client":"NAM","on_off_shore":true,"field_name":"Andel-6 (Wijk & Aalburg)","field_code":"WAA","lat":51.76389,"lng":5.075549,"created_at":"2015-05-23T11:22:46Z","updated_at":"2015-05-23T11:24:22Z","cartodb_id":75}},{"type":"Feature","geometry":{"type":"Point","coordinates":[6.150689,53.371869]},"properties":{"borehole_name":"ANJUM-01","borehole_status":"Producing","end_date":"1992-12-22T00:00:00Z","start_date":"1992-10-10T00:00:00Z","owner":"NAM","client":"NAM","on_off_shore":true,"field_name":"Anjum","field_code":"ANJ","lat":53.371869,"lng":6.150689,"created_at":"2015-05-23T11:22:46Z","updated_at":"2015-05-23T11:24:22Z","cartodb_id":76}},{"type":"Feature","geometry":{"type":"Point","coordinates":[6.150254,53.371889]},"properties":{"borehole_name":"ANJUM-02-SIDETRACK2","borehole_status":"Plugged and abandoned","end_date":"1994-09-21T00:00:00Z","start_date":"1994-07-02T00:00:00Z","owner":"NAM","client":"NAM","on_off_shore":true,"field_name":"Metslawier","field_code":"MET","lat":53.371889,"lng":6.150254,"created_at":"2015-05-23T11:22:46Z","updated_at":"2015-05-23T11:24:22Z","cartodb_id":77}},{"type":"Feature","geometry":{"type":"Point","coordinates":[6.150254,53.371889]},"properties":{"borehole_name":"ANJUM-02-SIDETRACK3","borehole_status":"Producing","end_date":"1994-10-19T00:00:00Z","start_date":"1994-09-21T00:00:00Z","owner":"NAM","client":"NAM","on_off_shore":true,"field_name":"Metslawier","field_code":"MET","lat":53.371889,"lng":6.150254,"created_at":"2015-05-23T11:22:46Z","updated_at":"2015-05-23T11:24:22Z","cartodb_id":78}},{"type":"Feature","geometry":{"type":"Point","coordinates":[6.150488,53.372373]},"properties":{"borehole_name":"ANJUM-03","borehole_status":"Unknown","end_date":"1998-08-15T00:00:00Z","start_date":"1998-05-06T00:00:00Z","owner":"NAM","client":"NAM","on_off_shore":true,"field_name":"Ezumazijl","field_code":"EZZ","lat":53.372373,"lng":6.150488,"created_at":"2015-05-23T11:22:46Z","updated_at":"2015-05-23T11:24:22Z","cartodb_id":79}},{"type":"Feature","geometry":{"type":"Point","coordinates":[6.150545,53.371393]},"properties":{"borehole_name":"ANJUM-04-SIDETRACK1","borehole_status":"Plugged and abandoned","end_date":"1997-03-19T00:00:00Z","start_date":"1997-02-25T00:00:00Z","owner":"NAM","client":"NAM","on_off_shore":true,"field_name":"Anjum","field_code":"ANJ","lat":53.371393,"lng":6.150545,"created_at":"2015-05-23T11:22:46Z","updated_at":"2015-05-23T11:24:22Z","cartodb_id":80}},{"type":"Feature","geometry":{"type":"Point","coordinates":[6.150545,53.371393]},"properties":{"borehole_name":"ANJUM-04-SIDETRACK2","borehole_status":"Producing","end_date":"1997-07-17T00:00:00Z","start_date":"1997-05-16T00:00:00Z","owner":"NAM","client":"NAM","on_off_shore":true,"field_name":"Anjum","field_code":"ANJ","lat":53.371393,"lng":6.150545,"created_at":"2015-05-23T11:22:46Z","updated_at":"2015-05-23T11:24:22Z","cartodb_id":81}},{"type":"Feature","geometry":{"type":"Point","coordinates":[6.785246,53.087922]},"properties":{"borehole_name":"ANNERVEEN-01","borehole_status":"Closed-in","end_date":"1973-01-13T00:00:00Z","start_date":"1972-11-21T00:00:00Z","owner":"NAM","client":"NAM","on_off_shore":true,"field_name":"Annerveen","field_code":"AVN","lat":53.087922,"lng":6.785246,"created_at":"2015-05-23T11:22:46Z","updated_at":"2015-05-23T11:24:22Z","cartodb_id":82}},{"type":"Feature","geometry":{"type":"Point","coordinates":[6.784394,53.087438]},"properties":{"borehole_name":"ANNERVEEN-02","borehole_status":"Producing","end_date":"1973-03-11T00:00:00Z","start_date":"1973-01-30T00:00:00Z","owner":"NAM","client":"NAM","on_off_shore":true,"field_name":"Annerveen","field_code":"AVN","lat":53.087438,"lng":6.784394,"created_at":"2015-05-23T11:22:46Z","updated_at":"2015-05-23T11:24:22Z","cartodb_id":83}},{"type":"Feature","geometry":{"type":"Point","coordinates":[6.917381,53.089924]},"properties":{"borehole_name":"ANNERVEEN-VEENDAM-04","borehole_status":"","end_date":"2013-04-16T00:00:00Z","start_date":"2013-03-08T00:00:00Z","owner":"NAM","client":"NAM","on_off_shore":true,"field_name":"","field_code":"","lat":53.089924,"lng":6.917381,"created_at":"2015-05-23T11:22:46Z","updated_at":"2015-05-23T11:24:22Z","cartodb_id":84}},{"type":"Feature","geometry":{"type":"Point","coordinates":[6.783439,53.087449]},"properties":{"borehole_name":"ANNERVEEN-03-SIDETRACK1","borehole_status":"","end_date":"1973-05-23T00:00:00Z","start_date":"1973-04-07T00:00:00Z","owner":"NAM","client":"NAM","on_off_shore":true,"field_name":"Annerveen","field_code":"AVN","lat":53.087449,"lng":6.783439,"created_at":"2015-05-23T11:22:46Z","updated_at":"2015-05-23T11:24:22Z","cartodb_id":85}},{"type":"Feature","geometry":{"type":"Point","coordinates":[6.783854,53.086878]},"properties":{"borehole_name":"ANNERVEEN-04-SIDETRACK1","borehole_status":"Producing","end_date":"1973-09-12T00:00:00Z","start_date":"1973-06-09T00:00:00Z","owner":"NAM","client":"NAM","on_off_shore":true,"field_name":"Annerveen","field_code":"AVN","lat":53.086878,"lng":6.783854,"created_at":"2015-05-23T11:22:46Z","updated_at":"2015-05-23T11:24:22Z","cartodb_id":86}},{"type":"Feature","geometry":{"type":"Point","coordinates":[5.941689,53.492717]},"properties":{"borehole_name":"AMELAND WESTGAT-103-SIDETRACK2","borehole_status":"Plugged and abandoned","end_date":"1984-09-25T00:00:00Z","start_date":"1984-06-06T00:00:00Z","owner":"NAM","client":"NAM","on_off_shore":true,"field_name":"","field_code":"","lat":53.492717,"lng":5.941689,"created_at":"2015-05-23T11:22:46Z","updated_at":"2015-05-23T11:24:22Z","cartodb_id":87}},{"type":"Feature","geometry":{"type":"Point","coordinates":[6.784787,53.087119]},"properties":{"borehole_name":"ANNERVEEN-05","borehole_status":"Producing","end_date":"1984-06-23T00:00:00Z","start_date":"1984-04-12T00:00:00Z","owner":"NAM","client":"NAM","on_off_shore":true,"field_name":"Annerveen","field_code":"AVN","lat":53.087119,"lng":6.784787,"created_at":"2015-05-23T11:22:46Z","updated_at":"2015-05-23T11:24:22Z","cartodb_id":88}},{"type":"Feature","geometry":{"type":"Point","coordinates":[6.78566,53.087351]},"properties":{"borehole_name":"ANNERVEEN-06","borehole_status":"Producing","end_date":"1985-04-28T00:00:00Z","start_date":"1985-03-12T00:00:00Z","owner":"NAM","client":"NAM","on_off_shore":true,"field_name":"Annerveen","field_code":"AVN","lat":53.087351,"lng":6.78566,"created_at":"2015-05-23T11:22:46Z","updated_at":"2015-05-23T11:24:22Z","cartodb_id":89}},{"type":"Feature","geometry":{"type":"Point","coordinates":[6.718578,53.074168]},"properties":{"borehole_name":"ANNERVEEN-SCHUILINGSOORD-01","borehole_status":"Closed-in","end_date":"1970-12-07T00:00:00Z","start_date":"1970-08-15T00:00:00Z","owner":"NAM","client":"NAM","on_off_shore":true,"field_name":"","field_code":"","lat":53.074168,"lng":6.718578,"created_at":"2015-05-23T11:22:46Z","updated_at":"2015-05-23T11:24:22Z","cartodb_id":90}},{"type":"Feature","geometry":{"type":"Point","coordinates":[6.917326,53.089776]},"properties":{"borehole_name":"ANNERVEEN-VEENDAM-01","borehole_status":"Closed-in","end_date":"1969-03-01T00:00:00Z","start_date":"1969-01-23T00:00:00Z","owner":"NAM","client":"NAM","on_off_shore":true,"field_name":"","field_code":"","lat":53.089776,"lng":6.917326,"created_at":"2015-05-23T11:22:46Z","updated_at":"2015-05-23T11:24:22Z","cartodb_id":91}},{"type":"Feature","geometry":{"type":"Point","coordinates":[6.917079,53.089546]},"properties":{"borehole_name":"ANNERVEEN-VEENDAM-02-SIDETRACK1","borehole_status":"Unknown","end_date":"1982-12-10T00:00:00Z","start_date":"1982-10-18T00:00:00Z","owner":"NAM","client":"NAM","on_off_shore":true,"field_name":"","field_code":"","lat":53.089546,"lng":6.917079,"created_at":"2015-05-23T11:22:46Z","updated_at":"2015-05-23T11:24:22Z","cartodb_id":92}},{"type":"Feature","geometry":{"type":"Point","coordinates":[6.917079,53.089546]},"properties":{"borehole_name":"ANNERVEEN-VEENDAM-02-SIDETRACK2","borehole_status":"Closed-in","end_date":"1983-01-21T00:00:00Z","start_date":"1982-12-10T00:00:00Z","owner":"NAM","client":"NAM","on_off_shore":true,"field_name":"","field_code":"","lat":53.089546,"lng":6.917079,"created_at":"2015-05-23T11:22:46Z","updated_at":"2015-05-23T11:24:22Z","cartodb_id":93}},{"type":"Feature","geometry":{"type":"Point","coordinates":[6.417869,52.966269]},"properties":{"borehole_name":"APPELSCHA-01","borehole_status":"Closed-in","end_date":"1971-01-08T00:00:00Z","start_date":"1970-11-30T00:00:00Z","owner":"NAM","client":"NAM","on_off_shore":true,"field_name":"Appelscha","field_code":"APS","lat":52.966269,"lng":6.417869,"created_at":"2015-05-23T11:22:46Z","updated_at":"2015-05-23T11:24:22Z","cartodb_id":94}},{"type":"Feature","geometry":{"type":"Point","coordinates":[6.417993,52.966438]},"properties":{"borehole_name":"APPELSCHA-02","borehole_status":"Plugged and abandoned","end_date":"1997-12-20T00:00:00Z","start_date":"1997-11-15T00:00:00Z","owner":"NAM","client":"NAM","on_off_shore":true,"field_name":"Appelscha","field_code":"APS","lat":52.966438,"lng":6.417993,"created_at":"2015-05-23T11:22:46Z","updated_at":"2015-05-23T11:24:22Z","cartodb_id":95}},{"type":"Feature","geometry":{"type":"Point","coordinates":[6.417993,52.966438]},"properties":{"borehole_name":"APPELSCHA-02-SIDETRACK1","borehole_status":"Producing","end_date":"1998-02-07T00:00:00Z","start_date":"1997-12-21T00:00:00Z","owner":"NAM","client":"NAM","on_off_shore":true,"field_name":"Appelscha","field_code":"APS","lat":52.966438,"lng":6.417993,"created_at":"2015-05-23T11:22:46Z","updated_at":"2015-05-23T11:24:22Z","cartodb_id":96}},{"type":"Feature","geometry":{"type":"Point","coordinates":[6.5286,53.005092]},"properties":{"borehole_name":"ASSEN-01","borehole_status":"Closed-in","end_date":"1982-06-12T00:00:00Z","start_date":"1982-03-09T00:00:00Z","owner":"NAM","client":"NAM","on_off_shore":true,"field_name":"Assen","field_code":"ASN","lat":53.005092,"lng":6.5286,"created_at":"2015-05-23T11:22:46Z","updated_at":"2015-05-23T11:24:22Z","cartodb_id":97}},{"type":"Feature","geometry":{"type":"Point","coordinates":[5.932987,53.50034]},"properties":{"borehole_name":"AMELAND WESTGAT-01","borehole_status":"Plugged and abandoned","end_date":"1975-11-04T00:00:00Z","start_date":"1975-07-28T00:00:00Z","owner":"NAM","client":"NAM","on_off_shore":true,"field_name":"","field_code":"","lat":53.50034,"lng":5.932987,"created_at":"2015-05-23T11:22:46Z","updated_at":"2015-05-23T11:24:22Z","cartodb_id":98}},{"type":"Feature","geometry":{"type":"Point","coordinates":[4.098182,55.285492]},"properties":{"borehole_name":"B13-A-03","borehole_status":"","end_date":"2011-09-14T00:00:00Z","start_date":"2011-07-16T00:00:00Z","owner":"Chevron","client":"Chevron","on_off_shore":false,"field_name":"B13-FA","field_code":"B13-FA","lat":55.285492,"lng":4.098182,"created_at":"2015-05-23T11:22:46Z","updated_at":"2015-05-23T11:24:22Z","cartodb_id":99}},{"type":"Feature","geometry":{"type":"Point","coordinates":[5.941727,53.492694]},"properties":{"borehole_name":"AMELAND WESTGAT-101-SIDETRACK4","borehole_status":"Closed-in","end_date":"2007-12-07T00:00:00Z","start_date":"2007-10-15T00:00:00Z","owner":"NAM","client":"NAM","on_off_shore":true,"field_name":"Ameland-Westgat","field_code":"AWG","lat":53.492694,"lng":5.941727,"created_at":"2015-05-23T11:22:46Z","updated_at":"2015-05-23T11:24:22Z","cartodb_id":100}},{"type":"Feature","geometry":{"type":"Point","coordinates":[5.941689,53.492717]},"properties":{"borehole_name":"AMELAND WESTGAT-102","borehole_status":"Producing","end_date":"1984-05-21T00:00:00Z","start_date":"1984-02-13T00:00:00Z","owner":"NAM","client":"NAM","on_off_shore":true,"field_name":"Ameland-Oost","field_code":"AME","lat":53.492717,"lng":5.941689,"created_at":"2015-05-23T11:22:46Z","updated_at":"2015-05-23T11:24:22Z","cartodb_id":101}},{"type":"Feature","geometry":{"type":"Point","coordinates":[5.941719,53.492726]},"properties":{"borehole_name":"AMELAND WESTGAT-104-SIDETRACK2","borehole_status":"Producing","end_date":"1985-04-02T00:00:00Z","start_date":"1984-12-06T00:00:00Z","owner":"NAM","client":"NAM","on_off_shore":true,"field_name":"Ameland-Oost","field_code":"AME","lat":53.492726,"lng":5.941719,"created_at":"2015-05-23T11:22:46Z","updated_at":"2015-05-23T11:24:22Z","cartodb_id":102}},{"type":"Feature","geometry":{"type":"Point","coordinates":[5.941703,53.492699]},"properties":{"borehole_name":"AMELAND WESTGAT-105","borehole_status":"Producing","end_date":"1986-09-30T00:00:00Z","start_date":"1985-05-30T00:00:00Z","owner":"NAM","client":"NAM","on_off_shore":true,"field_name":"Ameland-Oost","field_code":"AME","lat":53.492699,"lng":5.941703,"created_at":"2015-05-23T11:22:46Z","updated_at":"2015-05-23T11:24:22Z","cartodb_id":103}},{"type":"Feature","geometry":{"type":"Point","coordinates":[5.941749,53.492752]},"properties":{"borehole_name":"AMELAND WESTGAT-106","borehole_status":"Water injecting","end_date":"1990-07-01T00:00:00Z","start_date":"1990-01-25T00:00:00Z","owner":"NAM","client":"NAM","on_off_shore":true,"field_name":"Ameland-Oost","field_code":"AME","lat":53.492752,"lng":5.941749,"created_at":"2015-05-23T11:22:46Z","updated_at":"2015-05-23T11:24:22Z","cartodb_id":104}},{"type":"Feature","geometry":{"type":"Point","coordinates":[5.941779,53.492753]},"properties":{"borehole_name":"AMELAND WESTGAT-107","borehole_status":"Producing","end_date":"1992-06-02T00:00:00Z","start_date":"1992-03-29T00:00:00Z","owner":"NAM","client":"NAM","on_off_shore":true,"field_name":"Ameland-Westgat","field_code":"AWG","lat":53.492753,"lng":5.941779,"created_at":"2015-05-23T11:22:46Z","updated_at":"2015-05-23T11:24:22Z","cartodb_id":105}},{"type":"Feature","geometry":{"type":"Point","coordinates":[5.941779,53.492699]},"properties":{"borehole_name":"AMELAND WESTGAT-108","borehole_status":"Plugged and abandoned","end_date":"1997-11-03T00:00:00Z","start_date":"1997-09-17T00:00:00Z","owner":"NAM","client":"NAM","on_off_shore":true,"field_name":"Ameland-Westgat","field_code":"AWG","lat":53.492699,"lng":5.941779,"created_at":"2015-05-23T11:22:46Z","updated_at":"2015-05-23T11:24:22Z","cartodb_id":106}},{"type":"Feature","geometry":{"type":"Point","coordinates":[5.941779,53.492699]},"properties":{"borehole_name":"AMELAND WESTGAT-108-SIDETRACK1","borehole_status":"Closed-in","end_date":"1998-03-08T00:00:00Z","start_date":"1997-11-04T00:00:00Z","owner":"NAM","client":"NAM","on_off_shore":true,"field_name":"Ameland-Westgat","field_code":"AWG","lat":53.492699,"lng":5.941779,"created_at":"2015-05-23T11:22:46Z","updated_at":"2015-05-23T11:24:22Z","cartodb_id":107}},{"type":"Feature","geometry":{"type":"Point","coordinates":[5.941717,53.49274]},"properties":{"borehole_name":"AMELAND WESTGAT-109","borehole_status":"Producing","end_date":"1996-12-24T00:00:00Z","start_date":"1996-07-28T00:00:00Z","owner":"NAM","client":"NAM","on_off_shore":true,"field_name":"Ameland-Noord","field_code":"AMN","lat":53.49274,"lng":5.941717,"created_at":"2015-05-23T11:22:46Z","updated_at":"2015-05-23T11:24:22Z","cartodb_id":108}},{"type":"Feature","geometry":{"type":"Point","coordinates":[5.941717,53.49274]},"properties":{"borehole_name":"AMELAND WESTGAT-109-SIDETRACK1","borehole_status":"Temporarily abandoned","end_date":"2004-10-24T00:00:00Z","start_date":"2004-08-02T00:00:00Z","owner":"NAM","client":"NAM","on_off_shore":true,"field_name":"Ameland-Noord","field_code":"AMN","lat":53.49274,"lng":5.941717,"created_at":"2015-05-23T11:22:46Z","updated_at":"2015-05-23T11:24:22Z","cartodb_id":109}},{"type":"Feature","geometry":{"type":"Point","coordinates":[5.941802,53.492698]},"properties":{"borehole_name":"AMELAND WESTGAT-110","borehole_status":"","end_date":"2011-04-25T00:00:00Z","start_date":"2011-01-28T00:00:00Z","owner":"NAM","client":"NAM","on_off_shore":true,"field_name":"N07-FA","field_code":"N07-FA","lat":53.492698,"lng":5.941802,"created_at":"2015-05-23T11:22:46Z","updated_at":"2015-05-23T11:24:22Z","cartodb_id":110}},{"type":"Feature","geometry":{"type":"Point","coordinates":[4.003833,55.399611]},"properties":{"borehole_name":"B10-03","borehole_status":"Plugged and abandoned","end_date":"1991-10-31T00:00:00Z","start_date":"1991-09-23T00:00:00Z","owner":"NAM","client":"NAM","on_off_shore":false,"field_name":"","field_code":"","lat":55.399611,"lng":4.003833,"created_at":"2015-05-23T11:22:46Z","updated_at":"2015-05-23T11:24:22Z","cartodb_id":111}},{"type":"Feature","geometry":{"type":"Point","coordinates":[4.003833,55.399611]},"properties":{"borehole_name":"B10-03-SIDETRACK1","borehole_status":"Plugged and abandoned","end_date":"1991-11-16T00:00:00Z","start_date":"1991-11-01T00:00:00Z","owner":"NAM","client":"NAM","on_off_shore":false,"field_name":"","field_code":"","lat":55.399611,"lng":4.003833,"created_at":"2015-05-23T11:22:46Z","updated_at":"2015-05-23T11:24:22Z","cartodb_id":112}},{"type":"Feature","geometry":{"type":"Point","coordinates":[4.088056,55.277889]},"properties":{"borehole_name":"B13-03","borehole_status":"Plugged and abandoned","end_date":"1990-10-18T00:00:00Z","start_date":"1990-08-30T00:00:00Z","owner":"NAM","client":"NAM","on_off_shore":false,"field_name":"","field_code":"","lat":55.277889,"lng":4.088056,"created_at":"2015-05-23T11:22:46Z","updated_at":"2015-05-23T11:24:22Z","cartodb_id":113}},{"type":"Feature","geometry":{"type":"Point","coordinates":[4.098208,55.285494]},"properties":{"borehole_name":"B13-A-01-SIDETRACK1","borehole_status":"","end_date":"2011-10-27T00:00:00Z","start_date":"2011-06-26T00:00:00Z","owner":"Chevron","client":"","on_off_shore":false,"field_name":"B13-FA","field_code":"B13-FA","lat":55.285494,"lng":4.098208,"created_at":"2015-05-23T11:22:46Z","updated_at":"2015-05-23T11:24:22Z","cartodb_id":114}},{"type":"Feature","geometry":{"type":"Point","coordinates":[4.098208,55.285494]},"properties":{"borehole_name":"B13-A-01-SIDETRACK2","borehole_status":"","end_date":"2011-11-16T00:00:00Z","start_date":"2011-10-27T00:00:00Z","owner":"Chevron","client":"Chevron","on_off_shore":false,"field_name":"B13-FA","field_code":"B13-FA","lat":55.285494,"lng":4.098208,"created_at":"2015-05-23T11:22:46Z","updated_at":"2015-05-23T11:24:22Z","cartodb_id":115}},{"type":"Feature","geometry":{"type":"Point","coordinates":[4.098217,55.285472]},"properties":{"borehole_name":"B13-A-02","borehole_status":"","end_date":"2011-10-23T00:00:00Z","start_date":"2011-07-29T00:00:00Z","owner":"Chevron","client":"Chevron","on_off_shore":false,"field_name":"B13-FA","field_code":"B13-FA","lat":55.285472,"lng":4.098217,"created_at":"2015-05-23T11:22:46Z","updated_at":"2015-05-23T11:24:22Z","cartodb_id":116}},{"type":"Feature","geometry":{"type":"Point","coordinates":[4.098182,55.285472]},"properties":{"borehole_name":"B13-A-04-SIDETRACK1","borehole_status":"","end_date":"2011-10-20T00:00:00Z","start_date":"2011-09-20T00:00:00Z","owner":"Chevron","client":"Chevron","on_off_shore":false,"field_name":"B13-FA","field_code":"B13-FA","lat":55.285472,"lng":4.098182,"created_at":"2015-05-23T11:22:46Z","updated_at":"2015-05-23T11:24:22Z","cartodb_id":117}},{"type":"Feature","geometry":{"type":"Point","coordinates":[4.039806,55.117333]},"properties":{"borehole_name":"B16-01","borehole_status":"Plugged and abandoned","end_date":"1992-10-04T00:00:00Z","start_date":"1992-08-20T00:00:00Z","owner":"NAM","client":"NAM","on_off_shore":false,"field_name":"","field_code":"","lat":55.117333,"lng":4.039806,"created_at":"2015-05-23T11:22:46Z","updated_at":"2015-05-23T11:24:22Z","cartodb_id":118}},{"type":"Feature","geometry":{"type":"Point","coordinates":[4.524583,55.030944]},"properties":{"borehole_name":"B17-05","borehole_status":"Plugged and abandoned","end_date":"1991-06-08T00:00:00Z","start_date":"1991-04-28T00:00:00Z","owner":"NAM","client":"NAM","on_off_shore":false,"field_name":"","field_code":"","lat":55.030944,"lng":4.524583,"created_at":"2015-05-23T11:22:46Z","updated_at":"2015-05-23T11:24:22Z","cartodb_id":119}},{"type":"Feature","geometry":{"type":"Point","coordinates":[4.510769,55.067875]},"properties":{"borehole_name":"B17-06","borehole_status":"Plugged and abandoned","end_date":"1997-04-17T00:00:00Z","start_date":"1997-03-22T00:00:00Z","owner":"Wintershall","client":"Wintershall","on_off_shore":false,"field_name":"","field_code":"","lat":55.067875,"lng":4.510769,"created_at":"2015-05-23T11:22:46Z","updated_at":"2015-05-23T11:24:22Z","cartodb_id":120}},{"type":"Feature","geometry":{"type":"Point","coordinates":[6.567412,53.301505]},"properties":{"borehole_name":"BEDUM-02","borehole_status":"Producing","end_date":"1984-03-20T00:00:00Z","start_date":"1984-01-22T00:00:00Z","owner":"NAM","client":"NAM","on_off_shore":true,"field_name":"Bedum","field_code":"BDM","lat":53.301505,"lng":6.567412,"created_at":"2015-05-23T11:22:46Z","updated_at":"2015-05-23T11:24:22Z","cartodb_id":121}},{"type":"Feature","geometry":{"type":"Point","coordinates":[6.567449,53.301158]},"properties":{"borehole_name":"BEDUM-03","borehole_status":"Producing","end_date":"2002-07-13T00:00:00Z","start_date":"2002-06-02T00:00:00Z","owner":"NAM","client":"NAM","on_off_shore":true,"field_name":"Bedum","field_code":"BDM","lat":53.301158,"lng":6.567449,"created_at":"2015-05-23T11:22:46Z","updated_at":"2015-05-23T11:24:22Z","cartodb_id":122}},{"type":"Feature","geometry":{"type":"Point","coordinates":[6.56715,53.301666]},"properties":{"borehole_name":"BEDUM-04","borehole_status":"Closed-in","end_date":"2008-10-03T00:00:00Z","start_date":"2008-08-22T00:00:00Z","owner":"NAM","client":"NAM","on_off_shore":true,"field_name":"Bedum","field_code":"BDM","lat":53.301666,"lng":6.56715,"created_at":"2015-05-23T11:22:46Z","updated_at":"2015-05-23T11:24:22Z","cartodb_id":123}},{"type":"Feature","geometry":{"type":"Point","coordinates":[6.567198,53.300853]},"properties":{"borehole_name":"BEDUM-05","borehole_status":"","end_date":"2013-04-22T00:00:00Z","start_date":"2013-03-02T00:00:00Z","owner":"NAM","client":"NAM","on_off_shore":true,"field_name":"Bedum","field_code":"BDM","lat":53.300853,"lng":6.567198,"created_at":"2015-05-23T11:22:46Z","updated_at":"2015-05-23T11:24:22Z","cartodb_id":124}},{"type":"Feature","geometry":{"type":"Point","coordinates":[4.667493,52.659664]},"properties":{"borehole_name":"BERGEN-01-A","borehole_status":"Plugged and abandoned","end_date":"1965-04-23T00:00:00Z","start_date":"1964-12-03T00:00:00Z","owner":"TAQA","client":"Amoco","on_off_shore":true,"field_name":"","field_code":"","lat":52.659664,"lng":4.667493,"created_at":"2015-05-23T11:22:46Z","updated_at":"2015-05-23T11:24:22Z","cartodb_id":125}},{"type":"Feature","geometry":{"type":"Point","coordinates":[4.667493,52.659664]},"properties":{"borehole_name":"BERGEN-01-A-SIDETRACK1","borehole_status":"Closed-in","end_date":"1965-06-16T00:00:00Z","start_date":"1965-04-28T00:00:00Z","owner":"TAQA","client":"Amoco","on_off_shore":true,"field_name":"","field_code":"","lat":52.659664,"lng":4.667493,"created_at":"2015-05-23T11:22:46Z","updated_at":"2015-05-23T11:24:22Z","cartodb_id":126}},{"type":"Feature","geometry":{"type":"Point","coordinates":[4.634097,52.667061]},"properties":{"borehole_name":"BERGEN-02","borehole_status":"Closed-in","end_date":"1976-04-01T00:00:00Z","start_date":"1976-01-01T00:00:00Z","owner":"TAQA","client":"Amoco","on_off_shore":true,"field_name":"Bergen","field_code":"BER","lat":52.667061,"lng":4.634097,"created_at":"2015-05-23T11:22:46Z","updated_at":"2015-05-23T11:24:22Z","cartodb_id":127}},{"type":"Feature","geometry":{"type":"Point","coordinates":[4.634053,52.66706]},"properties":{"borehole_name":"BERGEN-03","borehole_status":"Producing","end_date":"1976-10-10T00:00:00Z","start_date":"1976-04-03T00:00:00Z","owner":"TAQA","client":"Amoco","on_off_shore":true,"field_name":"Bergen","field_code":"BER","lat":52.66706,"lng":4.634053,"created_at":"2015-05-23T11:22:46Z","updated_at":"2015-05-23T11:24:22Z","cartodb_id":128}},{"type":"Feature","geometry":{"type":"Point","coordinates":[4.634008,52.66706]},"properties":{"borehole_name":"BERGEN-04","borehole_status":"Producing","end_date":"1976-11-15T00:00:00Z","start_date":"1976-10-11T00:00:00Z","owner":"TAQA","client":"Amoco","on_off_shore":true,"field_name":"Bergen","field_code":"BER","lat":52.66706,"lng":4.634008,"created_at":"2015-05-23T11:22:46Z","updated_at":"2015-05-23T11:24:22Z","cartodb_id":129}},{"type":"Feature","geometry":{"type":"Point","coordinates":[4.718486,52.651536]},"properties":{"borehole_name":"BERGERMEER-01","borehole_status":"Producing","end_date":"1969-08-16T00:00:00Z","start_date":"1969-06-26T00:00:00Z","owner":"TAQA","client":"Amoco","on_off_shore":true,"field_name":"Bergermeer","field_code":"BGM","lat":52.651536,"lng":4.718486,"created_at":"2015-05-23T11:22:46Z","updated_at":"2015-05-23T11:24:22Z","cartodb_id":130}},{"type":"Feature","geometry":{"type":"Point","coordinates":[4.718662,52.651434]},"properties":{"borehole_name":"BERGERMEER-02","borehole_status":"Closed-in","end_date":"1970-07-10T00:00:00Z","start_date":"1970-04-26T00:00:00Z","owner":"TAQA","client":"Amoco","on_off_shore":true,"field_name":"Bergermeer","field_code":"BGM","lat":52.651434,"lng":4.718662,"created_at":"2015-05-23T11:22:46Z","updated_at":"2015-05-23T11:24:22Z","cartodb_id":131}},{"type":"Feature","geometry":{"type":"Point","coordinates":[4.718817,52.651284]},"properties":{"borehole_name":"BERGERMEER-03","borehole_status":"Observing","end_date":"1972-02-15T00:00:00Z","start_date":"1972-01-02T00:00:00Z","owner":"TAQA","client":"Amoco","on_off_shore":true,"field_name":"Bergermeer","field_code":"BGM","lat":52.651284,"lng":4.718817,"created_at":"2015-05-23T11:22:46Z","updated_at":"2015-05-23T11:24:22Z","cartodb_id":132}},{"type":"Feature","geometry":{"type":"Point","coordinates":[4.718817,52.651284]},"properties":{"borehole_name":"BERGERMEER-03-SIDETRACK1","borehole_status":"Closed-in","end_date":"1972-03-23T00:00:00Z","start_date":"1972-02-16T00:00:00Z","owner":"TAQA","client":"Amoco","on_off_shore":true,"field_name":"Bergermeer","field_code":"BGM","lat":52.651284,"lng":4.718817,"created_at":"2015-05-23T11:22:46Z","updated_at":"2015-05-23T11:24:22Z","cartodb_id":133}},{"type":"Feature","geometry":{"type":"Point","coordinates":[6.79315,52.691326]},"properties":{"borehole_name":"DALEN-03","borehole_status":"Closed-in","end_date":"1978-02-20T00:00:00Z","start_date":"1977-09-27T00:00:00Z","owner":"NAM","client":"NAM","on_off_shore":true,"field_name":"","field_code":"","lat":52.691326,"lng":6.79315,"created_at":"2015-05-23T11:22:46Z","updated_at":"2015-05-23T11:24:22Z","cartodb_id":134}},{"type":"Feature","geometry":{"type":"Point","coordinates":[4.717247,52.651406]},"properties":{"borehole_name":"BERGERMEER-05","borehole_status":"Producing","end_date":"1972-06-16T00:00:00Z","start_date":"1972-05-19T00:00:00Z","owner":"TAQA","client":"Amoco","on_off_shore":true,"field_name":"Bergermeer","field_code":"BGM","lat":52.651406,"lng":4.717247,"created_at":"2015-05-23T11:22:46Z","updated_at":"2015-05-23T11:24:22Z","cartodb_id":135}},{"type":"Feature","geometry":{"type":"Point","coordinates":[4.716639,52.651062]},"properties":{"borehole_name":"BERGERMEER-06-SIDETRACK1","borehole_status":"Producing","end_date":"1972-07-28T00:00:00Z","start_date":"1972-07-07T00:00:00Z","owner":"TAQA","client":"Amoco","on_off_shore":true,"field_name":"Bergermeer","field_code":"BGM","lat":52.651062,"lng":4.716639,"created_at":"2015-05-23T11:22:46Z","updated_at":"2015-05-23T11:24:22Z","cartodb_id":136}},{"type":"Feature","geometry":{"type":"Point","coordinates":[4.716789,52.651148]},"properties":{"borehole_name":"BERGERMEER-07","borehole_status":"Producing","end_date":"1980-06-06T00:00:00Z","start_date":"1980-02-06T00:00:00Z","owner":"TAQA","client":"Amoco","on_off_shore":true,"field_name":"Bergermeer","field_code":"BGM","lat":52.651148,"lng":4.716789,"created_at":"2015-05-23T11:22:46Z","updated_at":"2015-05-23T11:24:22Z","cartodb_id":137}},{"type":"Feature","geometry":{"type":"Point","coordinates":[4.717096,52.651319]},"properties":{"borehole_name":"BERGERMEER-08","borehole_status":"Producing","end_date":"1990-11-06T00:00:00Z","start_date":"1990-08-27T00:00:00Z","owner":"TAQA","client":"Amoco","on_off_shore":true,"field_name":"Bergermeer","field_code":"BGM","lat":52.651319,"lng":4.717096,"created_at":"2015-05-23T11:22:46Z","updated_at":"2015-05-23T11:24:22Z","cartodb_id":138}},{"type":"Feature","geometry":{"type":"Point","coordinates":[4.716594,52.651312]},"properties":{"borehole_name":"BERGERMEER-10-SIDETRACK2","borehole_status":"","end_date":"2014-06-16T00:00:00Z","start_date":"2014-02-12T00:00:00Z","owner":"TAQA","client":"TAQA","on_off_shore":true,"field_name":"Bergermeer","field_code":"BGM","lat":52.651312,"lng":4.716594,"created_at":"2015-05-23T11:22:46Z","updated_at":"2015-05-23T11:24:22Z","cartodb_id":139}},{"type":"Feature","geometry":{"type":"Point","coordinates":[4.716645,52.651342]},"properties":{"borehole_name":"BERGERMEER-11","borehole_status":"","end_date":"2014-05-27T00:00:00Z","start_date":"2013-12-04T00:00:00Z","owner":"TAQA","client":"TAQA","on_off_shore":true,"field_name":"Bergermeer","field_code":"BGM","lat":52.651342,"lng":4.716645,"created_at":"2015-05-23T11:22:46Z","updated_at":"2015-05-23T11:24:22Z","cartodb_id":140}},{"type":"Feature","geometry":{"type":"Point","coordinates":[4.716811,52.651434]},"properties":{"borehole_name":"BERGERMEER-14","borehole_status":"","end_date":"2014-03-17T00:00:00Z","start_date":"2013-11-27T00:00:00Z","owner":"TAQA","client":"TAQA","on_off_shore":true,"field_name":"","field_code":"","lat":52.651434,"lng":4.716811,"created_at":"2015-05-23T11:22:46Z","updated_at":"2015-05-23T11:24:22Z","cartodb_id":141}},{"type":"Feature","geometry":{"type":"Point","coordinates":[4.716866,52.651474]},"properties":{"borehole_name":"BERGERMEER-15","borehole_status":"","end_date":"2014-05-15T00:00:00Z","start_date":"2013-11-20T00:00:00Z","owner":"TAQA","client":"TAQA","on_off_shore":true,"field_name":"Bergermeer","field_code":"BGM","lat":52.651474,"lng":4.716866,"created_at":"2015-05-23T11:22:46Z","updated_at":"2015-05-23T11:24:22Z","cartodb_id":142}},{"type":"Feature","geometry":{"type":"Point","coordinates":[4.716871,52.651461]},"properties":{"borehole_name":"BERGERMEER-16","borehole_status":"","end_date":"2014-04-17T00:00:00Z","start_date":"2013-11-12T00:00:00Z","owner":"TAQA","client":"TAQA","on_off_shore":true,"field_name":"Bergermeer","field_code":"BGM","lat":52.651461,"lng":4.716871,"created_at":"2015-05-23T11:22:46Z","updated_at":"2015-05-23T11:24:22Z","cartodb_id":143}},{"type":"Feature","geometry":{"type":"Point","coordinates":[4.717318,52.6509]},"properties":{"borehole_name":"BERGERMEER-18","borehole_status":"","end_date":"2014-11-20T00:00:00Z","start_date":"2014-07-09T00:00:00Z","owner":"TAQA","client":"TAQA","on_off_shore":true,"field_name":"Bergermeer","field_code":"BGM","lat":52.6509,"lng":4.717318,"created_at":"2015-05-23T11:22:46Z","updated_at":"2015-05-23T11:24:22Z","cartodb_id":145}},{"type":"Feature","geometry":{"type":"Point","coordinates":[4.717373,52.65093]},"properties":{"borehole_name":"BERGERMEER-19","borehole_status":"","end_date":"2014-10-28T00:00:00Z","start_date":"2014-07-15T00:00:00Z","owner":"TAQA","client":"TAQA","on_off_shore":true,"field_name":"Bergermeer","field_code":"BGM","lat":52.65093,"lng":4.717373,"created_at":"2015-05-23T11:22:46Z","updated_at":"2015-05-23T11:24:22Z","cartodb_id":146}},{"type":"Feature","geometry":{"type":"Point","coordinates":[4.717591,52.651052]},"properties":{"borehole_name":"BERGERMEER-23","borehole_status":"","end_date":"2014-10-15T00:00:00Z","start_date":"2014-07-21T00:00:00Z","owner":"TAQA","client":"TAQA","on_off_shore":true,"field_name":"Bergermeer","field_code":"BGM","lat":52.651052,"lng":4.717591,"created_at":"2015-05-23T11:22:46Z","updated_at":"2015-05-23T11:24:22Z","cartodb_id":147}},{"type":"Feature","geometry":{"type":"Point","coordinates":[4.718483,52.651337]},"properties":{"borehole_name":"BERGERMEER-24","borehole_status":"","end_date":"2013-05-27T00:00:00Z","start_date":"2013-02-21T00:00:00Z","owner":"TAQA","client":"TAQA","on_off_shore":true,"field_name":"Bergermeer","field_code":"BGM","lat":52.651337,"lng":4.718483,"created_at":"2015-05-23T11:22:46Z","updated_at":"2015-05-23T11:24:22Z","cartodb_id":148}},{"type":"Feature","geometry":{"type":"Point","coordinates":[4.718538,52.651368]},"properties":{"borehole_name":"BERGERMEER-25","borehole_status":"","end_date":"2013-10-20T00:00:00Z","start_date":"2013-02-14T00:00:00Z","owner":"TAQA Energy","client":"TAQA Energy","on_off_shore":true,"field_name":"Bergermeer","field_code":"BGM","lat":52.651368,"lng":4.718538,"created_at":"2015-05-23T11:22:46Z","updated_at":"2015-05-23T11:24:22Z","cartodb_id":149}},{"type":"Feature","geometry":{"type":"Point","coordinates":[4.718728,52.651474]},"properties":{"borehole_name":"BERGERMEER-27","borehole_status":"","end_date":"2013-10-03T00:00:00Z","start_date":"2013-02-06T00:00:00Z","owner":"TAQA","client":"TAQA","on_off_shore":true,"field_name":"Bergermeer","field_code":"BGM","lat":52.651474,"lng":4.718728,"created_at":"2015-05-23T11:22:46Z","updated_at":"2015-05-23T11:24:22Z","cartodb_id":150}},{"type":"Feature","geometry":{"type":"Point","coordinates":[4.718783,52.651505]},"properties":{"borehole_name":"BERGERMEER-28","borehole_status":"","end_date":"2013-09-19T00:00:00Z","start_date":"2013-01-30T00:00:00Z","owner":"TAQA","client":"TAQA","on_off_shore":true,"field_name":"Bergermeer","field_code":"BGM","lat":52.651505,"lng":4.718783,"created_at":"2015-05-23T11:22:46Z","updated_at":"2015-05-23T11:24:22Z","cartodb_id":151}},{"type":"Feature","geometry":{"type":"Point","coordinates":[4.718837,52.651535]},"properties":{"borehole_name":"BERGERMEER-29","borehole_status":"","end_date":"2013-07-10T00:00:00Z","start_date":"2013-01-18T00:00:00Z","owner":"TAQA","client":"TAQA","on_off_shore":true,"field_name":"Bergermeer","field_code":"BGM","lat":52.651535,"lng":4.718837,"created_at":"2015-05-23T11:22:46Z","updated_at":"2015-05-23T11:24:22Z","cartodb_id":152}},{"type":"Feature","geometry":{"type":"Point","coordinates":[7.077788,53.094709]},"properties":{"borehole_name":"BLIJHAM-01","borehole_status":"Plugged and abandoned","end_date":"1972-03-20T00:00:00Z","start_date":"1971-11-18T00:00:00Z","owner":"NAM","client":"NAM","on_off_shore":true,"field_name":"","field_code":"","lat":53.094709,"lng":7.077788,"created_at":"2015-05-23T11:22:46Z","updated_at":"2015-05-23T11:24:22Z","cartodb_id":153}},{"type":"Feature","geometry":{"type":"Point","coordinates":[7.056862,53.096441]},"properties":{"borehole_name":"BLIJHAM-02","borehole_status":"Closed-in","end_date":"1979-05-28T00:00:00Z","start_date":"1979-01-08T00:00:00Z","owner":"NAM","client":"NAM","on_off_shore":true,"field_name":"Blijham","field_code":"BHM","lat":53.096441,"lng":7.056862,"created_at":"2015-05-23T11:22:46Z","updated_at":"2015-05-23T11:24:22Z","cartodb_id":154}},{"type":"Feature","geometry":{"type":"Point","coordinates":[7.056585,53.09622]},"properties":{"borehole_name":"BLIJHAM-03","borehole_status":"Closed-in","end_date":"1980-05-14T00:00:00Z","start_date":"1980-02-05T00:00:00Z","owner":"NAM","client":"NAM","on_off_shore":true,"field_name":"","field_code":"","lat":53.09622,"lng":7.056585,"created_at":"2015-05-23T11:22:46Z","updated_at":"2015-05-23T11:24:22Z","cartodb_id":155}},{"type":"Feature","geometry":{"type":"Point","coordinates":[7.05651,53.096598]},"properties":{"borehole_name":"BLIJHAM-04","borehole_status":"Closed-in","end_date":"1981-10-10T00:00:00Z","start_date":"1981-06-10T00:00:00Z","owner":"NAM","client":"NAM","on_off_shore":true,"field_name":"Blijham","field_code":"BHM","lat":53.096598,"lng":7.05651,"created_at":"2015-05-23T11:22:46Z","updated_at":"2015-05-23T11:24:22Z","cartodb_id":156}},{"type":"Feature","geometry":{"type":"Point","coordinates":[6.715693,52.707225]},"properties":{"borehole_name":"DALEN-04","borehole_status":"Producing","end_date":"1978-11-12T00:00:00Z","start_date":"1978-06-05T00:00:00Z","owner":"NAM","client":"NAM","on_off_shore":true,"field_name":"Dalen","field_code":"DAL","lat":52.707225,"lng":6.715693,"created_at":"2015-05-23T11:22:46Z","updated_at":"2015-05-23T11:24:22Z","cartodb_id":245}},{"type":"Feature","geometry":{"type":"Point","coordinates":[7.056233,53.096387]},"properties":{"borehole_name":"BLIJHAM-05-SIDETRACK2","borehole_status":"Plugged and abandoned","end_date":"1982-03-07T00:00:00Z","start_date":"1982-01-03T00:00:00Z","owner":"NAM","client":"NAM","on_off_shore":true,"field_name":"","field_code":"","lat":53.096387,"lng":7.056233,"created_at":"2015-05-23T11:22:46Z","updated_at":"2015-05-23T11:24:22Z","cartodb_id":157}},{"type":"Feature","geometry":{"type":"Point","coordinates":[7.056233,53.096387]},"properties":{"borehole_name":"BLIJHAM-05-SIDETRACK3","borehole_status":"Closed-in","end_date":"1984-05-22T00:00:00Z","start_date":"1984-04-28T00:00:00Z","owner":"NAM","client":"NAM","on_off_shore":true,"field_name":"","field_code":"","lat":53.096387,"lng":7.056233,"created_at":"2015-05-23T11:22:46Z","updated_at":"2015-05-23T11:24:22Z","cartodb_id":158}},{"type":"Feature","geometry":{"type":"Point","coordinates":[6.886524,53.373225]},"properties":{"borehole_name":"BIERUM-01","borehole_status":"Closed-in","end_date":"1963-09-24T00:00:00Z","start_date":"1963-07-13T00:00:00Z","owner":"NAM","client":"NAM","on_off_shore":true,"field_name":"Groningen","field_code":"GRO","lat":53.373225,"lng":6.886524,"created_at":"2015-05-23T11:22:46Z","updated_at":"2015-05-23T11:24:22Z","cartodb_id":159}},{"type":"Feature","geometry":{"type":"Point","coordinates":[6.887232,53.375005]},"properties":{"borehole_name":"BIERUM-02-SIDETRACK1","borehole_status":"Producing","end_date":"1975-04-04T00:00:00Z","start_date":"1975-02-02T00:00:00Z","owner":"NAM","client":"NAM","on_off_shore":true,"field_name":"Groningen","field_code":"GRO","lat":53.375005,"lng":6.887232,"created_at":"2015-05-23T11:22:46Z","updated_at":"2015-05-23T11:24:22Z","cartodb_id":160}},{"type":"Feature","geometry":{"type":"Point","coordinates":[6.887451,53.374391]},"properties":{"borehole_name":"BIERUM-03","borehole_status":"Producing","end_date":"1975-04-06T00:00:00Z","start_date":"1975-03-05T00:00:00Z","owner":"NAM","client":"NAM","on_off_shore":true,"field_name":"Groningen","field_code":"GRO","lat":53.374391,"lng":6.887451,"created_at":"2015-05-23T11:22:46Z","updated_at":"2015-05-23T11:24:22Z","cartodb_id":161}},{"type":"Feature","geometry":{"type":"Point","coordinates":[6.88767,53.373777]},"properties":{"borehole_name":"BIERUM-04","borehole_status":"Producing","end_date":"1975-05-10T00:00:00Z","start_date":"1975-04-07T00:00:00Z","owner":"NAM","client":"NAM","on_off_shore":true,"field_name":"Groningen","field_code":"GRO","lat":53.373777,"lng":6.88767,"created_at":"2015-05-23T11:22:46Z","updated_at":"2015-05-23T11:24:22Z","cartodb_id":162}},{"type":"Feature","geometry":{"type":"Point","coordinates":[6.887889,53.373163]},"properties":{"borehole_name":"BIERUM-05","borehole_status":"Producing","end_date":"1975-06-14T00:00:00Z","start_date":"1975-05-02T00:00:00Z","owner":"NAM","client":"NAM","on_off_shore":true,"field_name":"Groningen","field_code":"GRO","lat":53.373163,"lng":6.887889,"created_at":"2015-05-23T11:22:46Z","updated_at":"2015-05-23T11:24:22Z","cartodb_id":163}},{"type":"Feature","geometry":{"type":"Point","coordinates":[6.888108,53.37255]},"properties":{"borehole_name":"BIERUM-06","borehole_status":"Producing","end_date":"1975-07-10T00:00:00Z","start_date":"1975-06-15T00:00:00Z","owner":"NAM","client":"NAM","on_off_shore":true,"field_name":"Groningen","field_code":"GRO","lat":53.37255,"lng":6.888108,"created_at":"2015-05-23T11:22:46Z","updated_at":"2015-05-23T11:24:22Z","cartodb_id":164}},{"type":"Feature","geometry":{"type":"Point","coordinates":[6.887067,53.37241]},"properties":{"borehole_name":"BIERUM-07","borehole_status":"Producing","end_date":"1975-08-01T00:00:00Z","start_date":"1975-07-12T00:00:00Z","owner":"NAM","client":"NAM","on_off_shore":true,"field_name":"Groningen","field_code":"GRO","lat":53.37241,"lng":6.887067,"created_at":"2015-05-23T11:22:46Z","updated_at":"2015-05-23T11:24:22Z","cartodb_id":165}},{"type":"Feature","geometry":{"type":"Point","coordinates":[6.886863,53.373032]},"properties":{"borehole_name":"BIERUM-08","borehole_status":"Producing","end_date":"1975-10-05T00:00:00Z","start_date":"1975-09-02T00:00:00Z","owner":"NAM","client":"NAM","on_off_shore":true,"field_name":"Groningen","field_code":"GRO","lat":53.373032,"lng":6.886863,"created_at":"2015-05-23T11:22:46Z","updated_at":"2015-05-23T11:24:22Z","cartodb_id":166}},{"type":"Feature","geometry":{"type":"Point","coordinates":[6.886644,53.373646]},"properties":{"borehole_name":"BIERUM-09","borehole_status":"Producing","end_date":"1975-11-11T00:00:00Z","start_date":"1975-10-06T00:00:00Z","owner":"NAM","client":"NAM","on_off_shore":true,"field_name":"Groningen","field_code":"GRO","lat":53.373646,"lng":6.886644,"created_at":"2015-05-23T11:22:46Z","updated_at":"2015-05-23T11:24:22Z","cartodb_id":167}},{"type":"Feature","geometry":{"type":"Point","coordinates":[6.886425,53.37426]},"properties":{"borehole_name":"BIERUM-10","borehole_status":"Producing","end_date":"1975-07-24T00:00:00Z","start_date":"1975-06-23T00:00:00Z","owner":"NAM","client":"NAM","on_off_shore":true,"field_name":"Groningen","field_code":"GRO","lat":53.37426,"lng":6.886425,"created_at":"2015-05-23T11:22:46Z","updated_at":"2015-05-23T11:24:22Z","cartodb_id":168}},{"type":"Feature","geometry":{"type":"Point","coordinates":[6.886206,53.374874]},"properties":{"borehole_name":"BIERUM-11","borehole_status":"Producing","end_date":"1975-08-28T00:00:00Z","start_date":"1975-07-26T00:00:00Z","owner":"NAM","client":"NAM","on_off_shore":true,"field_name":"Groningen","field_code":"GRO","lat":53.374874,"lng":6.886206,"created_at":"2015-05-23T11:22:46Z","updated_at":"2015-05-23T11:24:22Z","cartodb_id":169}},{"type":"Feature","geometry":{"type":"Point","coordinates":[6.885987,53.375488]},"properties":{"borehole_name":"BIERUM-12","borehole_status":"Producing","end_date":"1975-10-01T00:00:00Z","start_date":"1975-08-29T00:00:00Z","owner":"NAM","client":"NAM","on_off_shore":true,"field_name":"Groningen","field_code":"GRO","lat":53.375488,"lng":6.885987,"created_at":"2015-05-23T11:22:46Z","updated_at":"2015-05-23T11:24:22Z","cartodb_id":170}},{"type":"Feature","geometry":{"type":"Point","coordinates":[6.887013,53.375619]},"properties":{"borehole_name":"BIERUM-13","borehole_status":"Plugged and abandoned","end_date":"1989-01-01T00:00:00Z","start_date":"1988-11-07T00:00:00Z","owner":"NAM","client":"NAM","on_off_shore":true,"field_name":"Groningen","field_code":"GRO","lat":53.375619,"lng":6.887013,"created_at":"2015-05-23T11:22:46Z","updated_at":"2015-05-23T11:24:22Z","cartodb_id":171}},{"type":"Feature","geometry":{"type":"Point","coordinates":[6.887013,53.375619]},"properties":{"borehole_name":"BIERUM-13-SIDETRACK1","borehole_status":"Plugged and abandoned","end_date":"1989-01-14T00:00:00Z","start_date":"1989-01-01T00:00:00Z","owner":"NAM","client":"NAM","on_off_shore":true,"field_name":"Groningen","field_code":"GRO","lat":53.375619,"lng":6.887013,"created_at":"2015-05-23T11:22:46Z","updated_at":"2015-05-23T11:24:22Z","cartodb_id":172}},{"type":"Feature","geometry":{"type":"Point","coordinates":[6.887013,53.375619]},"properties":{"borehole_name":"BIERUM-13-SIDETRACK2","borehole_status":"Producing","end_date":"1989-04-08T00:00:00Z","start_date":"1989-01-15T00:00:00Z","owner":"NAM","client":"NAM","on_off_shore":true,"field_name":"Groningen","field_code":"GRO","lat":53.375619,"lng":6.887013,"created_at":"2015-05-23T11:22:46Z","updated_at":"2015-05-23T11:24:22Z","cartodb_id":173}},{"type":"Feature","geometry":{"type":"Point","coordinates":[4.745046,52.603814]},"properties":{"borehole_name":"BOEKEL-01-SIDETRACK4","borehole_status":"Producing","end_date":"2006-04-11T00:00:00Z","start_date":"2006-04-01T00:00:00Z","owner":"TAQA","client":"BP","on_off_shore":true,"field_name":"Boekel","field_code":"BKL","lat":52.603814,"lng":4.745046,"created_at":"2015-05-23T11:22:46Z","updated_at":"2015-05-23T11:24:22Z","cartodb_id":174}},{"type":"Feature","geometry":{"type":"Point","coordinates":[4.756126,52.609284]},"properties":{"borehole_name":"BOEKELERMEER-01","borehole_status":"Producing","end_date":"1996-02-07T00:00:00Z","start_date":"1995-12-17T00:00:00Z","owner":"TAQA","client":"Amoco","on_off_shore":true,"field_name":"Alkmaar","field_code":"ALK","lat":52.609284,"lng":4.756126,"created_at":"2015-05-23T11:22:46Z","updated_at":"2015-05-23T11:24:22Z","cartodb_id":175}},{"type":"Feature","geometry":{"type":"Point","coordinates":[4.756126,52.609284]},"properties":{"borehole_name":"BOEKELERMEER-01-SIDETRACK1","borehole_status":"Closed-in","end_date":"1996-10-04T00:00:00Z","start_date":"1996-08-29T00:00:00Z","owner":"TAQA","client":"Amoco","on_off_shore":true,"field_name":"Alkmaar","field_code":"ALK","lat":52.609284,"lng":4.756126,"created_at":"2015-05-23T11:22:46Z","updated_at":"2015-05-23T11:24:22Z","cartodb_id":176}},{"type":"Feature","geometry":{"type":"Point","coordinates":[4.756053,52.609292]},"properties":{"borehole_name":"BOEKELERMEER-02","borehole_status":"Producing","end_date":"1996-03-20T00:00:00Z","start_date":"1996-02-10T00:00:00Z","owner":"TAQA","client":"Amoco","on_off_shore":true,"field_name":"Alkmaar","field_code":"ALK","lat":52.609292,"lng":4.756053,"created_at":"2015-05-23T11:22:46Z","updated_at":"2015-05-23T11:24:22Z","cartodb_id":177}},{"type":"Feature","geometry":{"type":"Point","coordinates":[4.755993,52.60931]},"properties":{"borehole_name":"BOEKELERMEER-03","borehole_status":"Producing","end_date":"1996-04-13T00:00:00Z","start_date":"1996-03-23T00:00:00Z","owner":"TAQA","client":"Amoco","on_off_shore":true,"field_name":"Alkmaar","field_code":"ALK","lat":52.60931,"lng":4.755993,"created_at":"2015-05-23T11:22:46Z","updated_at":"2015-05-23T11:24:22Z","cartodb_id":178}},{"type":"Feature","geometry":{"type":"Point","coordinates":[4.755993,52.60931]},"properties":{"borehole_name":"BOEKELERMEER-03-SIDETRACK1","borehole_status":"Closed-in","end_date":"1996-08-09T00:00:00Z","start_date":"1996-06-25T00:00:00Z","owner":"TAQA","client":"Amoco","on_off_shore":true,"field_name":"Alkmaar","field_code":"ALK","lat":52.60931,"lng":4.755993,"created_at":"2015-05-23T11:22:46Z","updated_at":"2015-05-23T11:24:22Z","cartodb_id":179}},{"type":"Feature","geometry":{"type":"Point","coordinates":[4.755919,52.609327]},"properties":{"borehole_name":"BOEKELERMEER-04","borehole_status":"Producing","end_date":"1996-05-19T00:00:00Z","start_date":"1996-04-15T00:00:00Z","owner":"TAQA","client":"Amoco","on_off_shore":true,"field_name":"Alkmaar","field_code":"ALK","lat":52.609327,"lng":4.755919,"created_at":"2015-05-23T11:22:46Z","updated_at":"2015-05-23T11:24:22Z","cartodb_id":180}},{"type":"Feature","geometry":{"type":"Point","coordinates":[4.755919,52.609327]},"properties":{"borehole_name":"BOEKELERMEER-04-SIDETRACK1","borehole_status":"Closed-in","end_date":"1996-06-24T00:00:00Z","start_date":"1996-05-19T00:00:00Z","owner":"TAQA","client":"Amoco","on_off_shore":true,"field_name":"Alkmaar","field_code":"ALK","lat":52.609327,"lng":4.755919,"created_at":"2015-05-23T11:22:46Z","updated_at":"2015-05-23T11:24:22Z","cartodb_id":181}},{"type":"Feature","geometry":{"type":"Point","coordinates":[4.755919,52.609327]},"properties":{"borehole_name":"BOEKELERMEER-05","borehole_status":"Producing","end_date":"1997-01-03T00:00:00Z","start_date":"1996-10-26T00:00:00Z","owner":"TAQA","client":"Amoco","on_off_shore":true,"field_name":"Alkmaar","field_code":"ALK","lat":52.609327,"lng":4.755919,"created_at":"2015-05-23T11:22:46Z","updated_at":"2015-05-23T11:24:22Z","cartodb_id":182}},{"type":"Feature","geometry":{"type":"Point","coordinates":[4.755771,52.609363]},"properties":{"borehole_name":"BOEKELERMEER-06","borehole_status":"Producing","end_date":"1997-02-09T00:00:00Z","start_date":"1996-08-09T00:00:00Z","owner":"TAQA","client":"Amoco","on_off_shore":true,"field_name":"Alkmaar","field_code":"ALK","lat":52.609363,"lng":4.755771,"created_at":"2015-05-23T11:22:46Z","updated_at":"2015-05-23T11:24:22Z","cartodb_id":183}},{"type":"Feature","geometry":{"type":"Point","coordinates":[4.755905,52.608955]},"properties":{"borehole_name":"BOEKELERMEER-07","borehole_status":"Producing","end_date":"2000-01-03T00:00:00Z","start_date":"1999-11-02T00:00:00Z","owner":"TAQA","client":"BP-Amoco","on_off_shore":true,"field_name":"Alkmaar","field_code":"ALK","lat":52.608955,"lng":4.755905,"created_at":"2015-05-23T11:22:46Z","updated_at":"2015-05-23T11:24:22Z","cartodb_id":184}},{"type":"Feature","geometry":{"type":"Point","coordinates":[4.755905,52.608955]},"properties":{"borehole_name":"BOEKELERMEER-07-SIDETRACK1","borehole_status":"","end_date":"2000-01-20T00:00:00Z","start_date":"2000-01-03T00:00:00Z","owner":"TAQA","client":"BP-Amoco","on_off_shore":true,"field_name":"Alkmaar","field_code":"ALK","lat":52.608955,"lng":4.755905,"created_at":"2015-05-23T11:22:46Z","updated_at":"2015-05-23T11:24:22Z","cartodb_id":185}},{"type":"Feature","geometry":{"type":"Point","coordinates":[4.755496,52.609058]},"properties":{"borehole_name":"BOEKELERMEER-09","borehole_status":"Producing","end_date":"2000-02-25T00:00:00Z","start_date":"1999-11-12T00:00:00Z","owner":"TAQA","client":"BP-Amoco","on_off_shore":true,"field_name":"Alkmaar","field_code":"ALK","lat":52.609058,"lng":4.755496,"created_at":"2015-05-23T11:22:46Z","updated_at":"2015-05-23T11:24:22Z","cartodb_id":186}},{"type":"Feature","geometry":{"type":"Point","coordinates":[5.194472,54.120972]},"properties":{"borehole_name":"G16-03","borehole_status":"Closed-in","end_date":"1990-11-14T00:00:00Z","start_date":"1990-08-26T00:00:00Z","owner":"NAM","client":"NAM","on_off_shore":false,"field_name":"","field_code":"","lat":54.120972,"lng":5.194472,"created_at":"2015-05-23T11:22:46Z","updated_at":"2015-05-23T11:24:22Z","cartodb_id":187}},{"type":"Feature","geometry":{"type":"Point","coordinates":[6.615156,52.587394]},"properties":{"borehole_name":"COLLENDOORN-01","borehole_status":"Closed-in","end_date":"1983-04-09T00:00:00Z","start_date":"1983-01-22T00:00:00Z","owner":"NAM","client":"NAM","on_off_shore":true,"field_name":"","field_code":"","lat":52.587394,"lng":6.615156,"created_at":"2015-05-23T11:22:46Z","updated_at":"2015-05-23T11:24:22Z","cartodb_id":188}},{"type":"Feature","geometry":{"type":"Point","coordinates":[5.99619,52.855295]},"properties":{"borehole_name":"BLESDIJKE-01","borehole_status":"Producing","end_date":"1998-12-28T00:00:00Z","start_date":"1998-11-27T00:00:00Z","owner":"Vermilion","client":"Elf Petroland","on_off_shore":true,"field_name":"Blesdijke","field_code":"BLD","lat":52.855295,"lng":5.99619,"created_at":"2015-05-23T11:22:46Z","updated_at":"2015-05-23T11:24:22Z","cartodb_id":189}},{"type":"Feature","geometry":{"type":"Point","coordinates":[5.850556,53.361673]},"properties":{"borehole_name":"BLIJA-FERWERDERADEEL-101","borehole_status":"Closed-in","end_date":"1963-05-04T00:00:00Z","start_date":"1963-03-03T00:00:00Z","owner":"NAM","client":"NAM","on_off_shore":true,"field_name":"Blija-Ferwerderadeel","field_code":"BLF","lat":53.361673,"lng":5.850556,"created_at":"2015-05-23T11:22:46Z","updated_at":"2015-05-23T11:24:22Z","cartodb_id":190}},{"type":"Feature","geometry":{"type":"Point","coordinates":[5.850435,53.36162]},"properties":{"borehole_name":"BLIJA-FERWERDERADEEL-102","borehole_status":"Plugged and abandoned","end_date":"1977-08-07T00:00:00Z","start_date":"1977-05-22T00:00:00Z","owner":"NAM","client":"NAM","on_off_shore":true,"field_name":"Blija-Ferwerderadeel","field_code":"BLF","lat":53.36162,"lng":5.850435,"created_at":"2015-05-23T11:22:46Z","updated_at":"2015-05-23T11:24:22Z","cartodb_id":191}},{"type":"Feature","geometry":{"type":"Point","coordinates":[5.850435,53.36162]},"properties":{"borehole_name":"BLIJA-FERWERDERADEEL-102-SIDETRACK1","borehole_status":"Closed-in","end_date":"1978-12-22T00:00:00Z","start_date":"1978-12-02T00:00:00Z","owner":"NAM","client":"NAM","on_off_shore":true,"field_name":"Blija-Ferwerderadeel","field_code":"BLF","lat":53.36162,"lng":5.850435,"created_at":"2015-05-23T11:22:46Z","updated_at":"2015-05-23T11:24:22Z","cartodb_id":192}},{"type":"Feature","geometry":{"type":"Point","coordinates":[5.851221,53.362039]},"properties":{"borehole_name":"BLIJA-FERWERDERADEEL-103","borehole_status":"Producing","end_date":"1984-08-04T00:00:00Z","start_date":"1984-05-30T00:00:00Z","owner":"NAM","client":"NAM","on_off_shore":true,"field_name":"Blija-Ferwerderadeel","field_code":"BLF","lat":53.362039,"lng":5.851221,"created_at":"2015-05-23T11:22:46Z","updated_at":"2015-05-23T11:24:22Z","cartodb_id":193}},{"type":"Feature","geometry":{"type":"Point","coordinates":[5.850749,53.361421]},"properties":{"borehole_name":"BLIJA-FERWERDERADEEL-104-SIDETRACK1","borehole_status":"Producing","end_date":"1984-09-23T00:00:00Z","start_date":"1984-08-24T00:00:00Z","owner":"NAM","client":"NAM","on_off_shore":true,"field_name":"Blija-Ferwerderadeel","field_code":"BLF","lat":53.361421,"lng":5.850749,"created_at":"2015-05-23T11:22:46Z","updated_at":"2015-05-23T11:24:22Z","cartodb_id":194}},{"type":"Feature","geometry":{"type":"Point","coordinates":[5.850888,53.361861]},"properties":{"borehole_name":"BLIJA-FERWERDERADEEL-105","borehole_status":"Producing","end_date":"1985-05-07T00:00:00Z","start_date":"1985-04-03T00:00:00Z","owner":"NAM","client":"NAM","on_off_shore":true,"field_name":"Blija-Ferwerderadeel","field_code":"BLF","lat":53.361861,"lng":5.850888,"created_at":"2015-05-23T11:22:46Z","updated_at":"2015-05-23T11:24:22Z","cartodb_id":195}},{"type":"Feature","geometry":{"type":"Point","coordinates":[5.851519,53.36184]},"properties":{"borehole_name":"BLIJA-FERWERDERADEEL-106","borehole_status":"Plugged and abandoned","end_date":"1997-10-26T00:00:00Z","start_date":"1997-09-21T00:00:00Z","owner":"NAM","client":"NAM","on_off_shore":true,"field_name":"Blija-Zuidoost","field_code":"BLZO","lat":53.36184,"lng":5.851519,"created_at":"2015-05-23T11:22:46Z","updated_at":"2015-05-23T11:24:22Z","cartodb_id":196}},{"type":"Feature","geometry":{"type":"Point","coordinates":[5.851519,53.36184]},"properties":{"borehole_name":"BLIJA-FERWERDERADEEL-106-SIDETRACK1","borehole_status":"Plugged and abandoned","end_date":"1997-12-07T00:00:00Z","start_date":"1997-10-27T00:00:00Z","owner":"NAM","client":"NAM","on_off_shore":true,"field_name":"Blija-Zuidoost","field_code":"BLZO","lat":53.36184,"lng":5.851519,"created_at":"2015-05-23T11:22:46Z","updated_at":"2015-05-23T11:24:22Z","cartodb_id":197}},{"type":"Feature","geometry":{"type":"Point","coordinates":[5.851519,53.36184]},"properties":{"borehole_name":"BLIJA-FERWERDERADEEL-106-SIDETRACK2","borehole_status":"Producing","end_date":"1998-01-15T00:00:00Z","start_date":"1997-12-09T00:00:00Z","owner":"NAM","client":"NAM","on_off_shore":true,"field_name":"Blija-Zuidoost","field_code":"BLZO","lat":53.36184,"lng":5.851519,"created_at":"2015-05-23T11:22:46Z","updated_at":"2015-05-23T11:24:22Z","cartodb_id":198}},{"type":"Feature","geometry":{"type":"Point","coordinates":[5.850466,53.361449]},"properties":{"borehole_name":"BLIJA-FERWERDERADEEL-108","borehole_status":"","end_date":"2011-08-14T00:00:00Z","start_date":"2011-06-06T00:00:00Z","owner":"NAM","client":"NAM","on_off_shore":true,"field_name":"Blija-Zuid","field_code":"BLZ","lat":53.361449,"lng":5.850466,"created_at":"2015-05-23T11:22:46Z","updated_at":"2015-05-23T11:24:22Z","cartodb_id":199}},{"type":"Feature","geometry":{"type":"Point","coordinates":[6.052,52.839972]},"properties":{"borehole_name":"DE BLESSE-01-SIDETRACK1","borehole_status":"Closed-in","end_date":"1987-12-14T00:00:00Z","start_date":"1987-11-15T00:00:00Z","owner":"NAM","client":"NAM","on_off_shore":true,"field_name":"De Blesse","field_code":"BLS","lat":52.839972,"lng":6.052,"created_at":"2015-05-23T11:22:46Z","updated_at":"2015-05-23T11:24:22Z","cartodb_id":200}},{"type":"Feature","geometry":{"type":"Point","coordinates":[6.051607,52.839843]},"properties":{"borehole_name":"DE BLESSE-02","borehole_status":"Producing","end_date":"2007-12-24T00:00:00Z","start_date":"2007-09-19T00:00:00Z","owner":"Vermilion","client":"Vermilion","on_off_shore":true,"field_name":"De Blesse","field_code":"BLS","lat":52.839843,"lng":6.051607,"created_at":"2015-05-23T11:22:46Z","updated_at":"2015-05-23T11:24:22Z","cartodb_id":201}},{"type":"Feature","geometry":{"type":"Point","coordinates":[6.927371,53.221323]},"properties":{"borehole_name":"BOLDERIJ-01","borehole_status":"Closed-in","end_date":"1972-01-26T00:00:00Z","start_date":"1972-01-02T00:00:00Z","owner":"NAM","client":"NAM","on_off_shore":true,"field_name":"Groningen","field_code":"GRO","lat":53.221323,"lng":6.927371,"created_at":"2015-05-23T11:22:46Z","updated_at":"2015-05-23T11:24:22Z","cartodb_id":202}},{"type":"Feature","geometry":{"type":"Point","coordinates":[5.715152,53.099146]},"properties":{"borehole_name":"BOZUM-01","borehole_status":"Producing","end_date":"1982-03-01T00:00:00Z","start_date":"1982-01-06T00:00:00Z","owner":"Vermilion","client":"Elf Petroland","on_off_shore":true,"field_name":"Bozum","field_code":"BZM","lat":53.099146,"lng":5.715152,"created_at":"2015-05-23T11:22:46Z","updated_at":"2015-05-23T11:24:22Z","cartodb_id":203}},{"type":"Feature","geometry":{"type":"Point","coordinates":[6.356792,53.193817]},"properties":{"borehole_name":"BOERAKKER-01","borehole_status":"Closed-in","end_date":"1984-12-12T00:00:00Z","start_date":"1984-10-01T00:00:00Z","owner":"NAM","client":"NAM","on_off_shore":true,"field_name":"","field_code":"","lat":53.193817,"lng":6.356792,"created_at":"2015-05-23T11:22:46Z","updated_at":"2015-05-23T11:24:22Z","cartodb_id":204}},{"type":"Feature","geometry":{"type":"Point","coordinates":[6.356723,53.194078]},"properties":{"borehole_name":"BOERAKKER-02","borehole_status":"Closed-in","end_date":"1998-04-24T00:00:00Z","start_date":"1998-02-26T00:00:00Z","owner":"NAM","client":"NAM","on_off_shore":true,"field_name":"Boerakker","field_code":"BRA","lat":53.194078,"lng":6.356723,"created_at":"2015-05-23T11:22:46Z","updated_at":"2015-05-23T11:24:22Z","cartodb_id":205}},{"type":"Feature","geometry":{"type":"Point","coordinates":[6.356818,53.193743]},"properties":{"borehole_name":"BOERAKKER-03","borehole_status":"Producing","end_date":"2002-09-28T00:00:00Z","start_date":"2002-08-18T00:00:00Z","owner":"NAM","client":"NAM","on_off_shore":true,"field_name":"Boerakker","field_code":"BRA","lat":53.193743,"lng":6.356818,"created_at":"2015-05-23T11:22:46Z","updated_at":"2015-05-23T11:24:22Z","cartodb_id":206}},{"type":"Feature","geometry":{"type":"Point","coordinates":[6.67978,53.311024]},"properties":{"borehole_name":"BARNHEEM-01","borehole_status":"Closed-in","end_date":"1973-08-28T00:00:00Z","start_date":"1973-07-30T00:00:00Z","owner":"NAM","client":"NAM","on_off_shore":true,"field_name":"","field_code":"","lat":53.311024,"lng":6.67978,"created_at":"2015-05-23T11:22:46Z","updated_at":"2015-05-23T11:24:22Z","cartodb_id":207}},{"type":"Feature","geometry":{"type":"Point","coordinates":[4.513576,51.845847]},"properties":{"borehole_name":"BARENDRECHT-02-SIDETRACK2","borehole_status":"Producing","end_date":"1999-07-13T00:00:00Z","start_date":"1999-06-20T00:00:00Z","owner":"NAM","client":"NAM","on_off_shore":true,"field_name":"Barendrecht","field_code":"BRT","lat":51.845847,"lng":4.513576,"created_at":"2015-05-23T11:22:46Z","updated_at":"2015-05-23T11:24:22Z","cartodb_id":208}},{"type":"Feature","geometry":{"type":"Point","coordinates":[4.554097,51.843337]},"properties":{"borehole_name":"BARENDRECHT ZIEDEWIJ-01","borehole_status":"Producing","end_date":"1993-01-30T00:00:00Z","start_date":"1992-12-14T00:00:00Z","owner":"NAM","client":"NAM","on_off_shore":true,"field_name":"Barendrecht-Ziedewij","field_code":"BRTZ","lat":51.843337,"lng":4.554097,"created_at":"2015-05-23T11:22:46Z","updated_at":"2015-05-23T11:24:22Z","cartodb_id":209}},{"type":"Feature","geometry":{"type":"Point","coordinates":[3.370395,53.500093]},"properties":{"borehole_name":"K08-FA-110","borehole_status":"","end_date":"2010-04-15T00:00:00Z","start_date":"2010-03-03T00:00:00Z","owner":"NAM","client":"NAM","on_off_shore":false,"field_name":"K07-FC","field_code":"K07-FC","lat":53.500093,"lng":3.370395,"created_at":"2015-05-23T11:22:46Z","updated_at":"2015-05-23T11:24:22Z","cartodb_id":669}},{"type":"Feature","geometry":{"type":"Point","coordinates":[4.554174,51.843095]},"properties":{"borehole_name":"BARENDRECHT ZIEDEWIJ-02-SIDETRACK1","borehole_status":"Unknown","end_date":"1995-06-14T00:00:00Z","start_date":"1995-05-15T00:00:00Z","owner":"NAM","client":"NAM","on_off_shore":true,"field_name":"Barendrecht-Ziedewij","field_code":"BRTZ","lat":51.843095,"lng":4.554174,"created_at":"2015-05-23T11:22:46Z","updated_at":"2015-05-23T11:24:22Z","cartodb_id":210}},{"type":"Feature","geometry":{"type":"Point","coordinates":[4.554174,51.843095]},"properties":{"borehole_name":"BARENDRECHT ZIEDEWIJ-02-SIDETRACK3","borehole_status":"Closed-in","end_date":"1995-07-18T00:00:00Z","start_date":"1995-07-02T00:00:00Z","owner":"NAM","client":"NAM","on_off_shore":true,"field_name":"Barendrecht-Ziedewij","field_code":"BRTZ","lat":51.843095,"lng":4.554174,"created_at":"2015-05-23T11:22:46Z","updated_at":"2015-05-23T11:24:22Z","cartodb_id":211}},{"type":"Feature","geometry":{"type":"Point","coordinates":[4.554604,51.843404]},"properties":{"borehole_name":"BARENDRECHT ZIEDEWIJ-03","borehole_status":"Producing","end_date":"1997-05-27T00:00:00Z","start_date":"1997-04-19T00:00:00Z","owner":"NAM","client":"NAM","on_off_shore":true,"field_name":"Barendrecht-Ziedewij","field_code":"BRTZ","lat":51.843404,"lng":4.554604,"created_at":"2015-05-23T11:22:46Z","updated_at":"2015-05-23T11:24:22Z","cartodb_id":212}},{"type":"Feature","geometry":{"type":"Point","coordinates":[4.554732,51.843143]},"properties":{"borehole_name":"BARENDRECHT ZIEDEWIJ-04","borehole_status":"Unknown","end_date":"1999-05-09T00:00:00Z","start_date":"1999-04-12T00:00:00Z","owner":"NAM","client":"NAM","on_off_shore":true,"field_name":"Barendrecht-Ziedewij","field_code":"BRTZ","lat":51.843143,"lng":4.554732,"created_at":"2015-05-23T11:22:46Z","updated_at":"2015-05-23T11:24:22Z","cartodb_id":213}},{"type":"Feature","geometry":{"type":"Point","coordinates":[4.554732,51.843143]},